,display_phone,distance,id,is_closed,name,phone,price,rating,review_count,transactions,address,longitude,latitude,categories,seperated_address,house_numbers,split_address,establishment,trimmed_name,clean_address
0,(210) 342-0011,4587.160656223971,9LCY2F98AV45IZA0Y4rXoQ,False,Azro,+12103420011,$$,4.5,217,[],2211 nw military hwy,-98.523454,29.534933,"['Afghan', 'Mediterranean', 'Halal']","['2211', 'nw', 'military', 'hwy']",2211,nw military hwy,Azro,azro,nw military hwy
1,,17253.000401688427,9gY5_pRJhqkzMokhQM3fcQ,False,Laziz,,,5.0,1,[],tinker ave,-98.628273,29.3737793,"['Afghan', 'Food Stands', 'Greek']","['tinker', 'ave']",tinker,ave,Laziz,laziz,ave
2,(210) 467-5102,6291.6985494178725,xoKRn7pXo6OZdDFrqma73g,False,African Village,+12104675102,,4.5,54,['delivery'],10918 wurzbach rd,-98.551459,29.540934,"['Ethiopian', 'African', 'Eritrean']","['10918', 'wurzbach', 'rd']",10918,wurzbach rd,African Village,afric village,wurzbach
3,(210) 474-6058,13820.55262400596,N2g3bqbQ_tXmwEr5XLOkXw,False,Kobams African Restaurant,+12104746058,$$,4.0,78,['pickup'],8753 grissom rd,-98.6563036353495,29.4805957233545,"['Caribbean', 'African', 'Seafood']","['8753', 'grissom', 'rd']",8753,grissom rd,Kobams African Restaurant,kobams afric restaurant,grissom
4,(210) 224-8484,8220.553657627619,A-2-cH0dGVDY7tEs_0BTEA,False,Boudro's On the River Walk,+12102248484,$$$,4.0,2363,['delivery'],421 e commerce st,-98.48839,29.42412,"['American (New)', 'Seafood']","['421', 'e', 'commerce', 'st']",421,e commerce st,Boudro's On the River Walk,boudros   river walk,e commerce
5,(210) 496-0828,8134.573517423651,_S3cq-DYrsSIpv3EI45ErA,False,The Magnolia Pancake Haus,+12104960828,$$,4.0,1889,['delivery'],606 embassy oaks,-98.488924,29.564154,"['Breakfast & Brunch', 'American (New)']","['606', 'embassy', 'oaks']",606,embassy oaks,The Magnolia Pancake Haus, magnoli pancake haus,embassy oaks
6,(210) 314-3929,6722.3943580179575,CPpcFOhRHZwRxU6LbeJNrQ,False,Cured,+12103143929,$$,4.5,1017,['delivery'],306 pearl pkwy,-98.479888,29.44198,"['Cocktail Bars', 'American (New)']","['306', 'pearl', 'pkwy']",306,pearl pkwy,Cured,cured,pearl pkwy
7,(210) 224-2900,8231.78293115204,IXF7ceaOgU5juDkMdQ2N6g,False,Zinc Bistro & Wine Bar,+12102242900,$$,4.0,1475,['delivery'],207 n presa st,-98.48927,29.42365,"['Wine Bars', 'American (New)', 'Burgers']","['207', 'n', 'presa', 'st']",207,n presa st,Zinc Bistro & Wine Bar,zinc bistro  wine bar,n presa
8,(210) 265-3763,4486.283457974526,NKyKURyCgz5zSIRQJjCgNQ,False,Sangria On the Burg,+12102653763,$$,4.5,976,"['delivery', 'restaurant_reservation']",5115 fredericksburg rd,-98.5597405,29.50168533,"['American (New)', 'Barbeque', 'Tacos']","['5115', 'fredericksburg', 'rd']",5115,fredericksburg rd,Sangria On the Burg,sangri   burg,fredericksburg
9,(210) 496-0828,8494.1163754653,ZlFxG9cdW4DkkygtwkkRPg,False,The Magnolia Pancake Haus,+12104960828,$$,4.0,1679,['delivery'],10333 huebner rd,-98.58484,29.54005,"['Breakfast & Brunch', 'American (New)']","['10333', 'huebner', 'rd']",10333,huebner rd,The Magnolia Pancake Haus, magnoli pancake haus,huebner
10,(210) 225-2547,9623.06633485972,pRp4lpOqcvDTWkCY1ShQDg,False,Bliss,+12102252547,$$$,4.5,553,['delivery'],926 s presa st,-98.48703,29.41118,['American (New)'],"['926', 's', 'presa', 'st']",926,s presa st,Bliss,bliss,s presa
11,(210) 236-8095,14449.813884542675,lHQUmNEMXFiHUfBWPZ7Odw,False,Whiskey Cake,+12102368095,$$,4.0,1380,[],15900 la cantera pkwy,-98.611468,29.593213,"['American (New)', 'Breakfast & Brunch']","['15900', 'la', 'cantera', 'pkwy']",15900,la cantera pkwy,Whiskey Cake,whiskey cake,la cantera pkwy
12,(210) 455-5701,6631.310328751167,mlrX_eT46F_WjEcNNDqg-g,False,Southerleigh Fine Food and Brewery,+12104555701,$$,4.0,1084,[],136 e grayson st,-98.480661821962,29.4425389496087,"['Breweries', 'American (New)', 'Bars']","['136', 'e', 'grayson', 'st']",136,e grayson st,Southerleigh Fine Food and Brewery,southerleigh fine food and brewery,e grayson
13,(210) 225-0722,8137.157164160428,n1QMj77k8tWEeqSe8cnRTA,False,Biga On The Banks,+12102250722,$$$,4.5,728,['delivery'],203 s saint marys st,-98.492,29.42369,"['American (New)', 'Venues & Event Spaces', 'Desserts']","['203', 's', 'saint', 'marys', 'st']",203,s saint marys st,Biga On The Banks,big   banks,saint marys
14,(210) 320-0819,5492.3288132338575,y0G19V0kCxK3XDE4PuEjKw,False,Tycoon Flats,+12103200819,$$,4.0,799,['delivery'],2926 n saint marys st,-98.48491,29.45228,"['Burgers', 'American (New)']","['2926', 'n', 'saint', 'marys', 'st']",2926,n saint marys st,Tycoon Flats,tyco flats,naint marys
15,(210) 616-0954,2758.8237756116373,jpkIekRcJwkheofnq4tyvw,False,Picnikins Patio Cafe,+12106160954,$$,4.5,405,['delivery'],6901 blanco rd,-98.50789,29.51892,"['American (New)', 'American (Traditional)']","['6901', 'blanco', 'rd']",6901,blanco rd,Picnikins Patio Cafe,picnikins patio cafe,blanco
16,(210) 828-9669,5501.003111445088,eglk84L_IwvD4KwPk0Rq3w,False,Cappy's Restaurant,+12108289669,$$,4.5,438,['delivery'],5011 broadway st,-98.4633888,29.4726367,"['American (New)', 'Breakfast & Brunch', 'Bars']","['5011', 'broadway', 'st']",5011,broadway st,Cappy's Restaurant,cappys restaurant,broadway
17,(210) 277-7047,9571.434425232646,oLdog5Vfrxo_E99A_zMypQ,False,Stella Public House,+12102777047,$$,4.0,665,"['delivery', 'pickup']",1414 s alamo st,-98.495517,29.409946,"['Pizza', 'American (New)', 'Tapas/Small Plates']","['1414', 's', 'alamo', 'st']",1414,s alamo st,Stella Public House,stell public house,s alamo
18,(210) 518-1063,8056.5565219330065,DCpLIlaGzsC8mG2077eANw,False,Las Canarias,+12105181063,$$,4.0,478,['delivery'],112 college st,-98.4899110856117,29.4251935550079,"['American (New)', 'Breakfast & Brunch', 'Buffets']","['112', 'college', 'st']",112,college st,Las Canarias, canarias,college
19,(210) 277-8612,9516.873013977325,_8CAyUIaJkgUqHtZATy-lQ,False,The Bread Box,+12102778612,$$,4.5,290,"['delivery', 'pickup']",555 w bitters rd,-98.499714738381,29.5790660823088,"['Bakeries', 'Sandwiches', 'American (New)']","['555', 'w', 'bitters', 'rd']",555,w bitters rd,The Bread Box, bread box,w bitters
20,(210) 448-8351,6583.825696088776,JS3gCbLH6Gkz_6lJR6AMQA,False,Supper,+12104488351,$$,4.0,445,['delivery'],132 e grayson st,-98.4810031048935,29.4428615387664,"['American (New)', 'Breakfast & Brunch']","['132', 'e', 'grayson', 'st']",132,e grayson st,Supper,supper,e grayson
21,(210) 248-9244,6611.926629847822,oVASyewXkfUUXb2k2nOaKw,False,Down on Grayson,+12102489244,$$,4.0,684,[],303 e grayson st,-98.4782447700663,29.4439930070745,"['American (New)', 'Beer Bar', 'Wine Bars']","['303', 'e', 'grayson', 'st']",303,e grayson st,Down on Grayson,down  grayson,e grayson
22,(210) 300-4728,4563.272003575844,uw5b_6gdZ6hYsCz75lwBXg,False,Outlaw Kitchens,+12103004728,$$,5.0,116,[],2919 n flores st,-98.5029868,29.4546217,"['American (New)', 'Cafes']","['2919', 'n', 'flores', 'st']",2919,n flores st,Outlaw Kitchens,outlaw kitchens,n flores
23,(210) 444-9547,3477.473761457342,npasNPLckc0XHKnScB4wmQ,False,MAX's Wine Dive - San Antonio,+12104449547,$$,3.5,681,"['delivery', 'pickup']",340 e basse rd,-98.47849,29.49649,"['Wine Bars', 'American (New)', 'Breakfast & Brunch']","['340', 'e', 'basse', 'rd']",340,e basse rd,MAX's Wine Dive - San Antonio,maxs wine dive  s antonio,e basse
24,(210) 558-6161,14422.525726116099,PsysXkAtN_X-jkmuSSt_kw,False,Perry's Steakhouse & Grille - La Cantera,+12105586161,$$$,4.0,465,['delivery'],15900 la cantera pkwy,-98.6110403886035,29.5932077735882,"['Steakhouses', 'Seafood', 'American (New)']","['15900', 'la', 'cantera', 'pkwy']",15900,la cantera pkwy,Perry's Steakhouse & Grille - La Cantera,perrys steakhouse  grille  l cantera,la cantera pkwy
25,(210) 354-4644,6556.269436574538,i8iLLTjW-_RzvXxlRVpsGg,False,Boiler House Texas Grill & Wine Garden,+12103544644,$$,3.5,720,"['delivery', 'pickup']",312 pearl pkwy,-98.480389,29.443453,"['American (New)', 'Breakfast & Brunch', 'Wine Bars']","['312', 'pearl', 'pkwy']",312,pearl pkwy,Boiler House Texas Grill & Wine Garden,boiler house texas grill  wine garden,pearl pkwy
26,(210) 354-3844,8406.487040615479,q4cLyDHBsJJKC4TF4nytDw,False,Yard House,+12103543844,$$,4.0,540,"['delivery', 'pickup']",849 e commerce st,-98.485064,29.423284,"['American (New)', 'Bars', 'Vegetarian']","['849', 'e', 'commerce', 'st']",849,e commerce st,Yard House,yard house,e commerce
27,(210) 973-6050,8861.22144709602,ymLDUAQv7WqSp0WacIlGpQ,False,Maverick Texas Brasserie,+12109736050,$$,4.0,326,['delivery'],710 s st mary's st,-98.490007,29.417631,"['Comfort Food', 'American (New)', 'Brasseries']","['710', 's', 'st', ""mary's"", 'st']",710,s st mary's st,Maverick Texas Brasserie,maverick texas brasserie,s mary's
28,(210) 590-0515,9520.183191400758,s5NDZKT4dI9_KS5LK9UhTA,False,Jamaica Jamaica Cuisine,+12105900515,$$,4.0,319,['delivery'],2026 austin hwy,-98.4164711460471,29.502487344186,"['Caribbean', 'Bars', 'American (New)']","['2026', 'austin', 'hwy']",2026,austin hwy,Jamaica Jamaica Cuisine,jamaic jamaic cuisine,austin hwy
29,(210) 236-5134,11735.850300540777,10lsN6Ciaf0b6z9Ha0-_Iw,False,Picnikins Patio Cafe,+12102365134,$$,4.5,197,['delivery'],5811 university heights blvd,-98.597038,29.5717050510903,"['American (New)', 'American (Traditional)']","['5811', 'university', 'heights', 'blvd']",5811,university heights blvd,Picnikins Patio Cafe,picnikins patio cafe,university heights
30,(210) 532-2551,9724.988886321617,T3oCtbanG90JrCnVS6eLbg,False,Bite,+12105322551,$$,4.0,220,"['delivery', 'restaurant_reservation']",1012 s presa st,-98.4868185165329,29.4103426122861,"['French', 'American (New)', 'Wine Bars']","['1012', 's', 'presa', 'st']",1012,s presa st,Bite,bite,s presa
31,(210) 223-3101,8897.561920585187,4XwckdO-Ep8hnUyBD4RYWw,False,Chart House,+12102233101,$$$,3.5,904,['delivery'],739 e césar e chávez blvd,-98.4844153,29.417013,"['Seafood', 'Steakhouses', 'American (New)']","['739', 'e', 'césar', 'e', 'chávez', 'blvd']",739,e césar e chávez blvd,Chart House,chart house,e césar chávez
32,(210) 824-0275,3119.1998521160494,0oh-tWbIP7Suh4vYQEMbIw,False,J. Alexander's Restaurant,+12108240275,$$,4.0,320,['delivery'],255 east basse rd,-98.4821761714426,29.4945472623267,"['American (New)', 'Seafood', 'Steakhouses']","['255', 'east', 'basse', 'rd']",255,east basse rd,J. Alexander's Restaurant,j. alexanders restaurant,east basse
33,(210) 802-1860,7629.17602552272,3nzrromr2ZfRwCjG4MSdCw,False,Pharm Table,+12108021860,$$,4.0,182,['delivery'],106 auditorium cir,-98.488109,29.42976,"['American (New)', 'Vegetarian', 'Cafes']","['106', 'auditorium', 'cir']",106,auditorium cir,Pharm Table,pharm table,auditorium cir
34,(210) 396-5817,8098.00689412776,G1TA_O4ImM47WJhVCrGBWg,False,Ostra,+12103965817,$$$,3.5,389,['delivery'],212 w crockett st,-98.49056,29.42465,"['American (New)', 'Seafood', 'Breakfast & Brunch']","['212', 'w', 'crockett', 'st']",212,w crockett st,Ostra,ostra,w crockett
35,(210) 352-3171,7862.022476607248,NAOHfkb9C6c834DH5Xu3kA,False,Rebelle,+12103523171,$$$,4.0,249,['delivery'],300 e travis st,-98.48957,29.42729,"['Seafood', 'American (New)', 'Steakhouses']","['300', 'e', 'travis', 'st']",300,e travis st,Rebelle,rebelle,e travis
36,(210) 556-8624,9322.274880656645,xSrHK8MdVm0IihVNfHM9vA,False,Benjies Munch,+12105568624,$$,4.5,116,['delivery'],1218 w bitters rd,-98.51214,29.5782,"['Food Trucks', 'Sandwiches', 'American (New)']","['1218', 'w', 'bitters', 'rd']",1218,w bitters rd,Benjies Munch,benjies munch,w bitters
37,(210) 354-3001,7717.221638210823,jeJU6D_Dan4hUT6Zvsqy9Q,False,Burleson Yard Beer Garden,+12103543001,$,4.0,156,[],430 austin st,-98.4783956408501,29.4325205189164,"['American (New)', 'Beer Gardens', 'Cocktail Bars']","['430', 'austin', 'st']",430,austin st,Burleson Yard Beer Garden,burles yard beer garden,austin
38,(210) 691-0033,14371.198829217921,X5y2lCbuF0THwrM5C83OKw,False,Yard House,+12106910033,$$,3.5,489,"['delivery', 'pickup']",15900 la cantera pkwy,-98.610752,29.592815,"['American (New)', 'Bars', 'Vegetarian']","['15900', 'la', 'cantera', 'pkwy']",15900,la cantera pkwy,Yard House,yard house,la cantera pkwy
39,(210) 224-1976,8453.839373493045,BE13CTKdTAatznUAmVDuBg,False,Fig Tree Restaurant,+12102241976,$$$,4.0,183,['delivery'],515 villita st,-98.488253,29.421901,"['American (New)', 'French']","['515', 'villita', 'st']",515,villita st,Fig Tree Restaurant,fig tree restaurant,villita
40,(210) 202-2694,13553.12599461676,thoppZoZ0yzdlz-8RexoFg,False,Topgolf,+12102022694,$$,3.5,366,[],5539 n loop 1604 w,-98.594985,29.594147,"['American (New)', 'Golf', 'Sports Bars']","['5539', 'n', 'loop', '1604', 'w']",5539,n loop 1604 w,Topgolf,topgolf,n loop 1604
41,(210) 824-8686,6478.117811219411,jXeeiKvlk7JP_vJSbRyknw,False,SILO Alamo Heights,+12108248686,$$$,4.0,244,['delivery'],1133 austin hwy,-98.44808,29.48757,"['American (New)', 'Lounges']","['1133', 'austin', 'hwy']",1133,austin hwy,SILO Alamo Heights,silo alamo heights,austin hwy
42,(210) 821-3738,3373.3810366261146,rYnFtYX8U2Sm5aHlAhDb9g,False,Canyon Cafe,+12108213738,$$,3.5,303,['delivery'],255 e basse rd,-98.4796751405624,29.4970145459832,['American (New)'],"['255', 'e', 'basse', 'rd']",255,e basse rd,Canyon Cafe,cany cafe,e basse
43,(210) 731-8534,3360.225568664964,6v-cmn8zqBiPKIX35mP63g,False,Charcoal Grill Organic Restaurant,+12107318534,$$,4.5,112,[],110 n crossroads blvd,-98.549023,29.492151,"['American (New)', 'Gluten-Free']","['110', 'n', 'crossroads', 'blvd']",110,n crossroads blvd,Charcoal Grill Organic Restaurant,charcoal grill organic restaurant,n crossroads
44,(210) 858-4052,5558.188578919147,gCtxmu4-s2FPmVt8AJXxxQ,False,BurgerFi,+12108584052,$$,4.0,151,"['delivery', 'pickup']",1907 nacogdoches rd,-98.4586191773087,29.506322701852,"['Hot Dogs', 'American (New)', 'Burgers']","['1907', 'nacogdoches', 'rd']",1907,nacogdoches rd,BurgerFi,burgerfi,nacogdoches
45,(210) 737-2411,5410.3221538117905,BiNmstOGccF4-8Isfvgpuw,False,Bombay Bicycle Club,+12107372411,$$,4.0,167,['delivery'],3506 n saint marys st,-98.478578,29.457093,"['American (New)', 'Sports Bars', 'Burgers']","['3506', 'n', 'saint', 'marys', 'st']",3506,n saint marys st,Bombay Bicycle Club,bombay bicycle club,naint marys
46,(210) 877-5355,14670.94160006607,9IvCOANZzgnbEHrPpw5vQQ,False,Kona Grill,+12108775355,$$,3.5,535,"['delivery', 'pickup']",15900 la cantera pkwy,-98.614506,29.593554,"['Sushi Bars', 'American (New)']","['15900', 'la', 'cantera', 'pkwy']",15900,la cantera pkwy,Kona Grill,kon grill,la cantera pkwy
47,(210) 828-6860,5517.1481324245115,RfP3zhPpXZR83yHtjvwonA,False,Cappyccino's,+12108286860,$$,4.0,103,['delivery'],5003 broadway st,-98.463308,29.472451,['American (New)'],"['5003', 'broadway', 'st']",5003,broadway st,Cappyccino's,cappyccinos,broadway
48,(210) 433-9960,8818.552053566103,cXChKPJAQaRWTpNpk6wNpQ,False,Chunky's Burgers,+12104339960,$$,3.5,241,"['delivery', 'pickup']",4602 callaghan rd,-98.6020614576721,29.4728246965723,"['Burgers', 'American (New)']","['4602', 'callaghan', 'rd']",4602,callaghan rd,Chunky's Burgers,chunkys burgers,callaghan
49,(210) 828-3508,4579.81695716371,E5tdvAio8CPvFsFAzsj0Bw,False,Stone Werks Big Rock Grille - Lincoln Heights,+12108283508,$$,3.5,297,['delivery'],999 e basse rd,-98.4672100317383,29.4974449232158,"['American (New)', 'Breakfast & Brunch', 'Cocktail Bars']","['999', 'e', 'basse', 'rd']",999,e basse rd,Stone Werks Big Rock Grille - Lincoln Heights,stone werks big rock grille  lincoln heights,e basse
50,(210) 520-0706,9519.432890487078,B_-sdSVBpWsgKhF8T1wilQ,False,Leon Valley Cafe,+12105200706,$$,4.5,329,['delivery'],6417 evers rd,-98.61236,29.50152,"['American (New)', 'Cafes']","['6417', 'evers', 'rd']",6417,evers rd,Leon Valley Cafe,le valley cafe,evers
51,(210) 503-5121,4353.184906199618,5Oj72C1PsKWHYM25XiQgWw,False,Clementine San Antonio,+12105035121,$$$,4.5,121,['delivery'],2195 nw military hwy,-98.5221405,29.5324243,"['Southern', 'American (New)']","['2195', 'nw', 'military', 'hwy']",2195,nw military hwy,Clementine San Antonio,clementine s antonio,nw military hwy
52,(210) 224-3343,8404.647364166347,gHiyjLK8ugcxPeM3J8KvJw,False,Durty Nelly's Irish Pub,+12102243343,$$,3.5,263,[],200 s alamo st,-98.4877823521925,29.4224955442625,"['Pubs', 'American (New)', 'Irish Pub']","['200', 's', 'alamo', 'st']",200,s alamo st,Durty Nelly's Irish Pub,durty nellys irish pub,s alamo
53,(210) 236-5437,10663.11535145296,VJpFnNjUiWx7tddvuB5K8g,False,Twin Peaks,+12102365437,$$,3.5,235,"['delivery', 'pickup']",12790 w interstate 10,-98.591961,29.562571,"['American (New)', 'Sports Bars']","['12790', 'w', 'interstate', '10']",12790,w interstate 10,Twin Peaks,tw peaks,w interstate 10
54,(210) 824-8686,6478.117811219411,2XqrAAya6djfuus3W9y_ug,False,Nosh,+12108248686,$$,3.5,122,['delivery'],1133 austin hwy,-98.44808,29.48757,['American (New)'],"['1133', 'austin', 'hwy']",1133,austin hwy,Nosh,nosh,austin hwy
55,(210) 822-7272,8335.0609764391,EJuG-HM4iINp8pPg2ZiMvQ,False,Longhorn Cafe,+12108227272,$,4.0,101,['delivery'],1003 rittiman rd,-98.4288549375732,29.4858512867362,['American (New)'],"['1003', 'rittiman', 'rd']",1003,rittiman rd,Longhorn Cafe,longhorn cafe,rittiman
56,(210) 998-7601,3294.4299275900944,KZ11iOFNohT5JWULdUBZ3Q,False,Kona Grill,+12109987601,$$,3.5,208,[],7400 san pedro ave,-98.495302,29.518962,"['Sushi Bars', 'American (New)']","['7400', 'san', 'pedro', 'ave']",7400,san pedro ave,Kona Grill,kon grill,san pedroe
57,(210) 233-1199,10951.119633152519,IUO84Sl_4U7RV7Imz9jXyA,False,Native Grill & Wings,+12102331199,$$,3.5,184,"['pickup', 'delivery']",3238 wurzbach rd,-98.6234731,29.4676421,"['American (New)', 'Sports Bars', 'Chicken Wings']","['3238', 'wurzbach', 'rd']",3238,wurzbach rd,Native Grill & Wings,native grill  wings,wurzbach
58,(210) 447-7102,3000.2587072229107,lcLRd7I5iJdIqvAbIdktlQ,False,Twin Peaks,+12104477102,$$,3.0,230,['delivery'],702 nw loop 410,-98.503753,29.519778,"['American (New)', 'Sports Bars']","['702', 'nw', 'loop', '410']",702,nw loop 410,Twin Peaks,tw peaks,nw loop 410
59,(726) 900-7500,14414.111624704727,TM2ehhLvzDKAGc9rVxPR1A,False,Bar Louie,+17269007500,$$,3.5,283,['delivery'],15900 la cantera pkwy,-98.6109611262589,29.5931670801876,"['Bars', 'American (New)', 'Gastropubs']","['15900', 'la', 'cantera', 'pkwy']",15900,la cantera pkwy,Bar Louie,bar louie,la cantera pkwy
60,(210) 424-2014,3206.180052898768,-3VigdTJEhNZSsd2SXR7Uw,False,California Pizza Kitchen at Alamo Quarry Market,+12104242014,$$,3.5,105,['delivery'],255 e basse rd,-98.48149,29.497705,"['Pizza', 'American (New)', 'Salad']","['255', 'e', 'basse', 'rd']",255,e basse rd,California Pizza Kitchen at Alamo Quarry Market,californi pizz kitchen at alamo quarry market,e basse
61,(210) 554-1721,7874.911390759732,HocbcLmnvHvc642fvUET8A,False,Market on Houston,+12105541721,$$,3.0,215,['pickup'],205 e houston st,-98.4910097799047,29.4266100081512,"['American (New)', 'Pizza', 'Breakfast & Brunch']","['205', 'e', 'houston', 'st']",205,e houston st,Market on Houston,market  houston,e houston
62,(210) 224-7625,8076.172200947882,r2fYmxLsjGPIehjX4bqY9Q,False,Hard Rock Cafe,+12102247625,$$,3.0,362,"['pickup', 'delivery']",111 w crockett st,-98.48909,29.42524,"['American (New)', 'Burgers', 'Music Venues']","['111', 'w', 'crockett', 'st']",111,w crockett st,Hard Rock Cafe,hard rock cafe,w crockett
63,(210) 569-4453,6722.459927749111,9wB-gDK4KCduywgN23BflA,False,Crepelandia,+12105694453,$,4.0,42,[],306 pearl pkwy,-98.4799336,29.4419566,"['American (New)', 'Creperies']","['306', 'pearl', 'pkwy']",306,pearl pkwy,Crepelandia,crepelandia,pearl pkwy
64,(210) 699-4275,8923.411563831985,ODE2zOpEppIxhuUDS0IKDA,False,California Pizza Kitchen at San Antonio,+12106994275,$$,3.5,110,"['pickup', 'delivery']",11745 ih 10 w phase 418,-98.581744,29.54927,"['Pizza', 'American (New)', 'Salad']","['11745', 'ih', '10', 'w', 'phase', '418']",11745,ih 10 w phase 418,California Pizza Kitchen at San Antonio,californi pizz kitchen at s antonio,ih 10 phase 418
65,(210) 298-8040,8254.458042798598,vR7zr2Lq--B1g-wl8uSAvQ,False,Las Ramblas,+12102988040,$$$,3.5,137,['restaurant_reservation'],306 w market st,-98.489783,29.423367,"['American (New)', 'Breakfast & Brunch', 'Cocktail Bars']","['306', 'w', 'market', 'st']",306,w market st,Las Ramblas, ramblas,w market
66,(210) 270-0786,8389.502027766841,WVci8VJE2GnURs5sMEmFDQ,False,The River's Edge Cafe + Patio Bar,+12102700786,$$,3.0,171,['delivery'],200 s alamo st,-98.4877999,29.42234,"['Breakfast & Brunch', 'American (New)', 'Sandwiches']","['200', 's', 'alamo', 'st']",200,s alamo st,The River's Edge Cafe + Patio Bar, rivers edge cafe + patio bar,s alamo
67,(210) 490-6666,8434.612089716693,I04iCC6w_WcP3g0PCVY56g,False,EZ's Brick Oven and Grill,+12104906666,$,3.0,121,"['pickup', 'delivery']",734 bitters rd,-98.4835817119437,29.5653935348117,"['Burgers', 'Pizza', 'American (New)']","['734', 'bitters', 'rd']",734,bitters rd,EZ's Brick Oven and Grill,ezs brick oven and grill,bitters
68,(210) 877-9099,11829.904524576688,LrvuxEiZL5mn6GjlQQ02SA,False,The Well Restaurant.    Drink + Dine + Dance,+12108779099,$$,2.5,225,"['pickup', 'delivery']",5539 utsa blvd,-98.5924062877893,29.5763703824102,"['Bars', 'Music Venues', 'American (New)']","['5539', 'utsa', 'blvd']",5539,utsa blvd,The Well Restaurant.    Drink + Dine + Dance, well restaurant.    drink + dine + dance,utsa
69,(210) 496-9400,8464.987510476953,T5p7wY4Zn6sBcWTS_nh3DQ,False,Wing Daddy's Sauce House,+12104969400,$$,2.5,148,['delivery'],903 e bitters rd,-98.4788363907882,29.563991434561,['American (New)'],"['903', 'e', 'bitters', 'rd']",903,e bitters rd,Wing Daddy's Sauce House,wing daddys sauce house,e bitters
70,(210) 321-4860,3763.635643716246,FiDlrMGtZ1Lm8E0h90zM2w,False,Cascabel Restaurant,+12103214860,$$,3.5,16,['delivery'],37 ne loop 410,-98.49087,29.52147,"['American (New)', 'Breakfast & Brunch']","['37', 'ne', 'loop', '410']",37,ne loop 410,Cascabel Restaurant,cascab restaurant,ne loop 410
71,(210) 495-3447,11951.484544866362,57C7zHSto7HlSJR4XHO16Q,False,First Watch - Thousand Oaks,+12104953447,,4.0,16,[],16668 san pedro ave,-98.4713694,29.5951894,"['Cafes', 'Breakfast & Brunch', 'American (New)']","['16668', 'san', 'pedro', 'ave']",16668,san pedro ave,First Watch - Thousand Oaks,first watch  thousand oaks,san pedroe
72,(214) 282-3932,8327.147344686033,T5EIOlmzWAxnHXmBFd8T9Q,False,Gourmet On the Fly,+12142823932,$,4.0,7,[],,-98.5858154296875,29.4526869212149,"['Food Trucks', 'American (New)', 'Burgers']",[],,,Gourmet On the Fly,gourmet   fly,
73,,8710.955676097867,OsXbDpR8pkp4yCcDEG3bIw,False,The Magpie,,,5.0,4,[],1602 e houston st,-98.47308,29.42489,"['Korean', 'American (New)']","['1602', 'e', 'houston', 'st']",1602,e houston st,The Magpie, magpie,e houston
74,(210) 486-2328,10636.783285610241,UPwGd1u52mEpJbEeduAaHQ,False,Artemisia's At SPC,+12104862328,,5.0,3,[],1801 martin luther king dr,-98.45452,29.41401,"['Cafeteria', 'American (New)']","['1801', 'martin', 'luther', 'king', 'dr']",1801,martin luther king dr,Artemisia's At SPC,artemisias at spc,martin luther king
75,(210) 473-6377,11363.038520324568,iJxbQ9KAGFBabTJ_aNyCtQ,False,Chi Chi Birds Hot Chicken,+12104736377,,4.5,4,[],6422 babcock rd,-98.6156,29.54626,"['American (New)', 'Pop-Up Restaurants', 'Chicken Shop']","['6422', 'babcock', 'rd']",6422,babcock rd,Chi Chi Birds Hot Chicken,chi chi birds hot chicken,babcock
76,,8073.416704308992,UYS35udDfDUvZTkfA3eXZQ,False,Blazin' Burgers Food Truck,,$,3.5,8,[],,,,"['Street Vendors', 'American (New)', 'Food Trucks']",[],,,Blazin' Burgers Food Truck,blazin burgers food truck,
77,(210) 734-7184,5323.92218791589,WodoCjlSPnDx552pWJCUDQ,False,Zootennial Restaurant,+12107347184,$$,3.5,6,[],3903 n st mary's st,-98.4736340492963,29.4623022611927,"['Pizza', 'American (New)', 'Burgers']","['3903', 'n', 'st', ""mary's"", 'st']",3903,n st mary's st,Zootennial Restaurant,zootennial restaurant,n mary's
78,,6207.127139645585,r2lEgHINqEBwATcRrpgmDQ,False,Cilantro,,$$,4.0,4,[],1111 ne loop 410,-98.455688,29.517038,['American (New)'],"['1111', 'ne', 'loop', '410']",1111,ne loop 410,Cilantro,cilantro,ne loop 410
79,(210) 377-3900,3458.271024318643,-fh9rAYxKJkpPVS0fLx5Vg,False,Asado Urban Grill,+12103773900,$$$,3.0,7,[],3233 nw loop 410,-98.5475234985352,29.5061302185059,"['American (New)', 'Breakfast & Brunch', 'Bars']","['3233', 'nw', 'loop', '410']",3233,nw loop 410,Asado Urban Grill,asado urb grill,nw loop 410
80,(210) 223-3923,7973.463310788911,pov8efOwv9HcO54z7LZ7aQ,False,Judy's Food To Go,+12102233923,$,3.5,3,[],108 soledad st,-98.492729,29.425258,['American (New)'],"['108', 'soledad', 'st']",108,soledad st,Judy's Food To Go,judys food to go,soledad
81,(210) 525-9999,4987.9304736997365,yd7kkgeUZbbQot0uA4n6jQ,False,E’Terie Bar & Grill,+12105259999,,4.0,2,[],10110 us hwy 281 n,-98.4836581,29.5304421214427,"['Cocktail Bars', 'American (New)']","['10110', 'us', 'hwy', '281', 'n']",10110,us hwy 281 n,E’Terie Bar & Grill,e’terie bar  grill,us hwy 281
82,(210) 800-1525,8073.416704308992,9QL55WA1sMGY0j1CpS2dug,False,MARS' Mobile Kitchen,+12108001525,$$,3.5,11,[],,,,"['Street Vendors', 'American (New)', 'Food Trucks']",[],,,MARS' Mobile Kitchen,mars mobile kitchen,
83,,14620.009051366016,4hShoGEhuabnbkLd2iH0dg,False,Coco & Lolly,,,2.5,3,[],15900 la cantera pkwy,-98.615711,29.592006,"['American (New)', 'Mexican']","['15900', 'la', 'cantera', 'pkwy']",15900,la cantera pkwy,Coco & Lolly,coco  lolly,la cantera pkwy
84,(210) 444-5389,10586.28244805153,8h6SIfTthw4c05VJEtZVkA,False,Terrace Club Restaurant,+12104445389,,2.5,2,[],one at & t center pkwy,-98.437675,29.42661,['American (New)'],"['one', 'at', '&', 't', 'center', 'pkwy']",one,at & t center pkwy,Terrace Club Restaurant,terrace club restaurant,at & t center pkwy
85,(210) 509-7611,8663.055218889,nbIygUwGLpUPZgsqB3rWaQ,False,Taqueria Jalisco,+12105097611,,3.0,1,['delivery'],6003 bandera rd,-98.603513,29.4841895,['American (New)'],"['6003', 'bandera', 'rd']",6003,bandera rd,Taqueria Jalisco,taqueri jalisco,bandera
86,(210) 930-2866,5186.6036551959505,CEdmpooC1WdSkoKATUkL5Q,False,Alamo City Microbrewery & Grill,+12109302866,$$,1.5,4,[],9800 airport blvd,-98.4719849,29.5262299,['American (New)'],"['9800', 'airport', 'blvd']",9800,airport blvd,Alamo City Microbrewery & Grill,alamo city microbrewery  grill,airport
87,(210) 349-3373,1216.5999133945647,B5uuM5QnJU7MhtvFCHCtLA,False,Los Cocos Bakery,+12103493373,,4.0,1,[],3309 w ave,-98.526123,29.4915066,"['Bakeries', 'American (New)', 'Mexican']","['3309', 'w', 'ave']",3309,w ave,Los Cocos Bakery, cocos bakery,we
88,(210) 332-1900,14669.64737557376,5YxLUaIppqXW8Gtar0NwVg,False,Bazille,+12103321900,,3.0,2,[],15900 la cantera pkwy,-98.615105,29.594201,"['American (New)', 'Cocktail Bars']","['15900', 'la', 'cantera', 'pkwy']",15900,la cantera pkwy,Bazille,bazille,la cantera pkwy
89,,14329.11001326207,k0Xvn7dU9GaNRfzvsDF8Ug,False,Biker Jim's,,,5.0,1,[],utsa 1604 campus,-98.6184692382812,29.5861396789551,['American (New)'],"['utsa', '1604', 'campus']",utsa,1604 campus,Biker Jim's,biker jims,1604 campus
90,(210) 263-3340,12576.26475028125,B4KOaAWFIo5QCiORA3VbWA,False,J's Chicken And Waffles,+12102633340,,2.0,1,[],12521 nacogdoches rd,-98.40385,29.553917,"['Soul Food', 'American (New)']","['12521', 'nacogdoches', 'rd']",12521,nacogdoches rd,J's Chicken And Waffles,js chicken and waffles,nacogdoches
91,(210) 222-2521,8054.697723522756,AsL7ifh6n0r9eGkhij6-Ng,False,The Esquire Tavern,+12102222521,$$,4.0,2509,"['pickup', 'restaurant_reservation']",155 e commerce st,-98.4917683754631,29.4247334154792,"['Lounges', 'Burgers', 'American (Traditional)']","['155', 'e', 'commerce', 'st']",155,e commerce st,The Esquire Tavern, esquire tavern,e commerce
92,(210) 314-7760,3323.168289795035,imR_DEGlWMVoFMhTa9pjxQ,False,Sabor Cocinabar,+12103147760,$$,4.5,374,['delivery'],4331 mccullough ave,-98.492007,29.4717878,"['Mexican', 'Breakfast & Brunch', 'American (Traditional)']","['4331', 'mccullough', 'ave']",4331,mccullough ave,Sabor Cocinabar,sabor cocinabar,mcculloughe
93,(210) 483-7600,8340.907859570825,PLIGLhyC9PwmSt9m8a6Yvg,False,Max & Louie's New York Diner,+12104837600,$$,4.0,906,['delivery'],226 w bitters rd,-98.486054,29.565278,"['Diners', 'Breakfast & Brunch', 'American (Traditional)']","['226', 'w', 'bitters', 'rd']",226,w bitters rd,Max & Louie's New York Diner,max  louies new york diner,w bitters
94,(210) 616-0954,2758.8237756116373,jpkIekRcJwkheofnq4tyvw,False,Picnikins Patio Cafe,+12106160954,$$,4.5,405,['delivery'],6901 blanco rd,-98.50789,29.51892,"['American (New)', 'American (Traditional)']","['6901', 'blanco', 'rd']",6901,blanco rd,Picnikins Patio Cafe,picnikins patio cafe,blanco
95,(210) 562-3075,6307.384930460427,uitnSU8Wv8LRT50y2w-Pmg,False,Embers Wood Fire Grill & Bar,+12105623075,$$,4.0,634,"['pickup', 'delivery', 'restaurant_reservation']",9818 i-10 w,-98.5638796538115,29.5313678598065,"['American (Traditional)', 'Bars']","['9818', 'i-10', 'w']",9818,i-10 w,Embers Wood Fire Grill & Bar,embers wood fire grill  bar,i-10
96,(210) 370-3779,10897.562876375305,7jHc6y8AJA-kTQcZ98iG-w,False,Courtyard Cafe,+12103703779,$,4.5,499,"['pickup', 'delivery']",7600 eckhert rd,-98.6256989546503,29.5093437868539,"['Cafes', 'American (Traditional)', 'Sandwiches']","['7600', 'eckhert', 'rd']",7600,eckhert rd,Courtyard Cafe,courtyard cafe,eckhert
97,(210) 696-5080,8520.762733417794,aMXaX_6fHJoBJahBhOzFAg,False,Flying Saucer Draught Emporium,+12106965080,$$,4.0,597,['delivery'],11255 huebner rd,-98.5773702051393,29.5480101806576,"['Bars', 'American (Traditional)']","['11255', 'huebner', 'rd']",11255,huebner rd,Flying Saucer Draught Emporium,flying saucer draught emporium,huebner
98,(210) 233-1249,6996.407916178756,R7uAhHQL3IXxlATny8KOnQ,False,Green Vegetarian Cuisine,+12102331249,$$,4.0,437,['delivery'],10003 nw military hwy,-98.5363480230089,29.5543913840854,['American (Traditional)'],"['10003', 'nw', 'military', 'hwy']",10003,nw military hwy,Green Vegetarian Cuisine,green vegetari cuisine,nw military hwy
99,(210) 437-4263,5402.27878035177,qAUBsHNG1xIxPEGalV2Brg,False,Cullum's Attagirl,+12104374263,$,4.0,390,['delivery'],726 e mistletoe,-98.485025,29.453132,"['American (Traditional)', 'Beer Bar']","['726', 'e', 'mistletoe']",726,e mistletoe,Cullum's Attagirl,cullums attagirl,e mistletoe
100,(210) 227-1187,9368.944081287129,CpZsZpaVeURirfk8h6Oorw,False,Liberty Bar,+12102271187,$$,4.0,686,['delivery'],1111 s alamo st,-98.492389,29.412391,"['American (Traditional)', 'Breakfast & Brunch', 'Salad']","['1111', 's', 'alamo', 'st']",1111,s alamo st,Liberty Bar,liberty bar,s alamo
101,(210) 212-5727,9801.3796453895,wVVFSBnS8PXTZSXDtHZWPA,False,La Tuna Grill,+12102125727,$$,4.5,297,['delivery'],100 probandt st,-98.4960195883273,29.4077582365361,"['American (Traditional)', 'Seafood', 'Sandwiches']","['100', 'probandt', 'st']",100,probandt st,La Tuna Grill,l tun grill,probandt
102,(210) 492-9464,12619.641031093282,lNTg24zSpDxVJBJY92Hn7g,False,Anchor Bar,+12104929464,$$,4.5,413,"['pickup', 'delivery']",4553 n loop 1604 w,-98.5710993014624,29.5966515787771,"['Chicken Wings', 'Bars', 'American (Traditional)']","['4553', 'n', 'loop', '1604', 'w']",4553,n loop 1604 w,Anchor Bar,anchor bar,n loop 1604
103,(210) 222-1849,7657.294011292648,NpB9QM71dOUKekVLjEwckw,False,Restaurant Gwendolyn,+12102221849,$$$$,4.5,248,['delivery'],152 e pecan st,-98.49154,29.42854,"['American (Traditional)', 'Modern European', 'Caterers']","['152', 'e', 'pecan', 'st']",152,e pecan st,Restaurant Gwendolyn,restaurant gwendolyn,e pecan
104,(210) 227-1521,7616.1606918750595,AMNb9E9NCwzmP6Cel0i9iA,False,Chas Market & Kitchen,+12102271521,$$,4.0,284,"['pickup', 'delivery']",1431 n pine st,-98.470536,29.437582,"['Korean', 'American (Traditional)', 'Mexican']","['1431', 'n', 'pine', 'st']",1431,n pine st,Chas Market & Kitchen,chas market  kitchen,n pine
105,(210) 224-6169,6555.463420204735,PZRiLW58f_OTo9iY46VojQ,False,Josephine Street,+12102246169,$$,4.0,434,['delivery'],400 e josephine st,-98.4782019,29.4446161,"['Steakhouses', 'American (Traditional)', 'Chicken Wings']","['400', 'e', 'josephine', 'st']",400,e josephine st,Josephine Street,josephine street,e josephine
106,(210) 474-6699,7050.333641454732,S03dN81Ae5tQAjymZGFUPQ,False,L & L Hawaiian Grill,+12104746699,$,4.0,298,"['pickup', 'delivery']",1302 austin hwy,-98.441582,29.489544,"['Hawaiian', 'Asian Fusion', 'American (Traditional)']","['1302', 'austin', 'hwy']",1302,austin hwy,L & L Hawaiian Grill,l  l hawaii grill,austin hwy
107,(210) 224-2337,9182.912645251996,-azLu4PCWhMW-rGu3RCzyQ,False,The Friendly Spot Ice House,+12102242337,$,4.0,494,[],943 s alamo st,-98.490599,29.414498,"['Bars', 'American (Traditional)']","['943', 's', 'alamo', 'st']",943,s alamo st,The Friendly Spot Ice House, friendly spot ice house,s alamo
108,(210) 224-9835,8036.809899683128,Ri8ny-KWMtWl5yokiKE56w,False,Iron Cactus,+12102249835,$$,3.5,1129,['delivery'],200 river walk,-98.491085,29.425072,"['Mexican', 'Bars', 'American (Traditional)']","['200', 'river', 'walk']",200,river walk,Iron Cactus,ir cactus,riveralk
109,(210) 476-5010,6772.842370679697,u_0WZ-WvK9cWAks6dXdaGA,False,Earth Burger,+12104765010,$,4.5,96,['delivery'],2501 nacogdoches rd,-98.4501488,29.518579,"['Vegan', 'American (Traditional)']","['2501', 'nacogdoches', 'rd']",2501,nacogdoches rd,Earth Burger,earth burger,nacogdoches
110,(210) 299-8110,9307.629338832412,iTm3wK_HmnnjcSd4fuN0vw,False,Mark's Outing,+12102998110,$,4.5,179,"['pickup', 'delivery']",1624 e commerce st,-98.4708068,29.4198356,"['Burgers', 'Hot Dogs', 'American (Traditional)']","['1624', 'e', 'commerce', 'st']",1624,e commerce st,Mark's Outing,marks outing,e commerce
111,(210) 222-9092,8133.248041730323,34P8wyqZyO-PsyJ3jGBrEg,False,Saltgrass Steak House,+12102229092,$$,3.5,744,"['pickup', 'delivery']",502 riverwalk,-98.4886845,29.4248067,"['Steakhouses', 'Seafood', 'American (Traditional)']","['502', 'riverwalk']",502,riverwalk,Saltgrass Steak House,saltgrass steak house,riverwalk
112,(210) 481-8776,6857.986873856169,i6UX_C4YDX6816PQGzY5Rw,False,Grayze,+12104818776,$$,3.5,381,"['pickup', 'delivery']",521 e grayson st,-98.47463,29.44345,"['American (Traditional)', 'Venues & Event Spaces', 'Bars']","['521', 'e', 'grayson', 'st']",521,e grayson st,Grayze,grayze,e grayson
113,(210) 277-4770,2934.736502825122,5vYRfkwwa_93TPFdYzPevg,False,Shake Shack,+12102774770,$$,3.5,333,['delivery'],7427 san pedro ave,-98.4998115746294,29.5175745238617,"['American (Traditional)', 'Burgers', 'Fast Food']","['7427', 'san', 'pedro', 'ave']",7427,san pedro ave,Shake Shack,shake shack,san pedroe
114,(210) 691-3447,6911.0573813013925,XqLcng650eC27U897RXiBg,False,First Watch,+12106913447,$$,4.0,275,[],9985 i-10,-98.56673,29.53669,"['Breakfast & Brunch', 'Cafes', 'American (Traditional)']","['9985', 'i-10']",9985,i-10,First Watch,first watch,i-10
115,(210) 558-5300,11365.509687853708,rlF5xzZW29fKv9CtFMjKag,False,Checo's Mexican & American Grill,+12105585300,$,4.0,188,"['pickup', 'delivery']",5999 de zavala rd,-98.6009893,29.5635149,"['Mexican', 'American (Traditional)', 'Breakfast & Brunch']","['5999', 'de', 'zavala', 'rd']",5999,de zavala rd,Checo's Mexican & American Grill,checos mexic  americ grill,de zavala
116,(210) 647-7720,11137.12687827118,rwIcwyBXR14Zt6qQYroMWw,False,Pancake Joes,+12106477720,$,4.0,318,['delivery'],6703 ingram rd,-98.6243926361203,29.465043355164,"['American (Traditional)', 'Breakfast & Brunch']","['6703', 'ingram', 'rd']",6703,ingram rd,Pancake Joes,pancake joes,ingram
117,(210) 366-9000,2769.368956363005,NPrt8Ns2TTNBVwrUAnKLSg,False,First Watch,+12103669000,$$,4.0,184,[],830 nw loop 410,-98.506318,29.5183289,"['Breakfast & Brunch', 'Cafes', 'American (Traditional)']","['830', 'nw', 'loop', '410']",830,nw loop 410,First Watch,first watch,nw loop 410
118,(210) 994-9838,3757.7922181242384,RoyklFAqrt_D4IyGnBMNFw,False,Mr Juicy,+12109949838,,4.5,103,"['pickup', 'delivery']",3910 mccullough ave,-98.491614,29.46708,['American (Traditional)'],"['3910', 'mccullough', 'ave']",3910,mccullough ave,Mr Juicy,mr juicy,mcculloughe
119,(210) 496-7092,7912.371654245717,YFfOQF8sryMqXIMCVJaD-g,False,Charlie Brown's Neighborhood Bar & Grill,+12104967092,$,4.0,154,['delivery'],11888 starcrest dr,-98.46113,29.54819,"['Dive Bars', 'Sports Bars', 'American (Traditional)']","['11888', 'starcrest', 'dr']",11888,starcrest dr,Charlie Brown's Neighborhood Bar & Grill,charlie browns neighborhood bar  grill,starcrest
120,(210) 521-2988,10835.65842281153,KMofP8OxOCvqC_PIGP1J9Q,False,Texas Roadhouse,+12105212988,$$,4.0,200,[],2893 cinema ridge,-98.6204541389488,29.4632458085977,"['Steakhouses', 'Barbeque', 'American (Traditional)']","['2893', 'cinema', 'ridge']",2893,cinema ridge,Texas Roadhouse,texas roadhouse,cinema ridge
121,(210) 229-1010,8020.887423194556,c9jnVuBALVqag9wbPmmNbw,False,Landry's Seafood House,+12102291010,$$,3.0,709,[],517 n presa,-98.4888319256106,29.4258271017459,"['Seafood', 'Steakhouses', 'American (Traditional)']","['517', 'n', 'presa']",517,n presa,Landry's Seafood House,landrys seafood house,n presa
122,(210) 798-2222,3265.934909712261,YD165pqaakFZe-zSiEqMjQ,False,The Cheesecake Factory,+12107982222,$$,3.5,389,[],7400 san pedro,-98.4956250335706,29.5188424168627,"['Desserts', 'American (Traditional)']","['7400', 'san', 'pedro']",7400,san pedro,The Cheesecake Factory, cheesecake factory,san pedro
123,(210) 490-9220,10883.54174118126,FaSwdda4SlNzPDgUuM_zfw,False,Willie's Grill & Icehouse,+12104909220,$$,4.0,255,"['pickup', 'delivery']",15801 san pedro ave,-98.4758758544922,29.5863227844238,"['Burgers', 'American (Traditional)', 'Seafood']","['15801', 'san', 'pedro', 'ave']",15801,san pedro ave,Willie's Grill & Icehouse,willies grill  icehouse,san pedroe
124,(210) 822-2265,5441.493165036793,JdyJ1jRuMV49tT3KNRlFYQ,False,Twin Sisters Bakery & Cafe,+12108222265,$$,3.5,245,['pickup'],6322 n new braunfels ave,-98.4587331962834,29.4876107547137,['American (Traditional)'],"['6322', 'n', 'new', 'braunfels', 'ave']",6322,n new braunfels ave,Twin Sisters Bakery & Cafe,tw sisters bakery  cafe,new braunfelse
125,(210) 641-6447,9036.132693232792,zD9VdTS3WmOEbHaAl8V56A,False,Saltgrass Steak House,+12106416447,$$,3.5,279,"['pickup', 'delivery']",11745 i-10 w,-98.583502,29.5491066,"['Steakhouses', 'Seafood', 'American (Traditional)']","['11745', 'i-10', 'w']",11745,i-10 w,Saltgrass Steak House,saltgrass steak house,i-10
126,(210) 828-1470,5691.733189694383,Y976IAZCMQHmiTTedtEBeg,False,Magic Time Machine,+12108281470,$$,3.5,368,['delivery'],902 ne loop 410,-98.4609447065397,29.5157783443815,"['American (Traditional)', 'Bars', 'Steakhouses']","['902', 'ne', 'loop', '410']",902,ne loop 410,Magic Time Machine,magic time machine,ne loop 410
127,(210) 212-5506,9612.139496358206,SZPMn8vSlb2WurCULgK2Sg,False,Blue Star Brewing,+12102125506,$$,3.0,432,[],1414 s alamo st,-98.4953643044747,29.4095989705174,"['Breweries', 'American (Traditional)', 'Venues & Event Spaces']","['1414', 's', 'alamo', 'st']",1414,s alamo st,Blue Star Brewing,blue star brewing,s alamo
128,(210) 290-8066,3391.8446249014573,y-5I6U_tX0Q2ouI_hinEHA,False,Quarry Hofbrau & Beer Garden,+12102908066,$$,3.0,343,[],7310 jones maltsberger rd,-98.4795419943039,29.4975567690645,"['German', 'American (Traditional)', 'Beer Gardens']","['7310', 'jones', 'maltsberger', 'rd']",7310,jones maltsberger rd,Quarry Hofbrau & Beer Garden,quarry hofbrau  beer garden,jones maltsberger
129,(210) 732-0191,3149.3761066161687,yIWpXEq_ofPIA4AL4Fytlw,False,Tip Top Cafe,+12107320191,$$,3.0,362,"['pickup', 'delivery']",2814 fredericksburg rd,-98.5312299,29.47013,"['American (Traditional)', 'Seafood', 'Sandwiches']","['2814', 'fredericksburg', 'rd']",2814,fredericksburg rd,Tip Top Cafe,tip top cafe,fredericksburg
130,(210) 444-9424,6869.328578193729,TDHuagWKUiZyui4y2_lvNA,False,Earl Abel's,+12104449424,$$,3.5,328,"['pickup', 'delivery']",1639 broadway st,-98.4776541064646,29.4415921449536,"['Diners', 'American (Traditional)', 'Burgers']","['1639', 'broadway', 'st']",1639,broadway st,Earl Abel's,earl abels,broadway
131,(210) 455-6644,8709.406297962603,Ab6TzOWuAxC7QOZAm8qfBw,False,Walk-On's Sports Bistreaux,+12104556644,$$,3.5,179,"['pickup', 'delivery']",11075 ih 10 w,-98.581156,29.546983,"['American (Traditional)', 'Sports Bars']","['11075', 'ih', '10', 'w']",11075,ih 10 w,Walk-On's Sports Bistreaux,walkons sports bistreaux,ih 10
132,(210) 402-6621,12011.335685887485,_th9Kt1eA-zuJA3CWhxApQ,False,Saltgrass Steak House,+12104026621,$$,3.5,196,"['pickup', 'delivery']",16910 us 281 n,-98.4713176047546,29.5957467962701,"['Steakhouses', 'Seafood', 'American (Traditional)']","['16910', 'us', '281', 'n']",16910,us 281 n,Saltgrass Steak House,saltgrass steak house,us 281
133,(210) 224-0026,8169.188688277794,OCpjEJOSo--ciS1OGlDwKg,False,Dick's Last Resort,+12102240026,$$,3.0,562,"['pickup', 'delivery']",223 losoya st,-98.4880772,29.4246387,"['Bars', 'American (Traditional)', 'Seafood']","['223', 'losoya', 'st']",223,losoya st,Dick's Last Resort,dicks last resort,losoya
134,(210) 348-5724,3008.600863549449,GuEG-COoRmNBeE-qvWfciw,False,LongHorn Steakhouse,+12103485724,$$,3.5,175,['delivery'],7439 san pedro ave,-98.4999320224661,29.5183849764953,"['Steakhouses', 'American (Traditional)', 'Barbeque']","['7439', 'san', 'pedro', 'ave']",7439,san pedro ave,LongHorn Steakhouse,longhorn steakhouse,san pedroe
135,(210) 592-7249,5446.83633348544,Moc_khGkJiyTGoikTm1J8g,False,Raising Cane's Chicken Fingers,+12105927249,$,4.0,99,[],9800 airport blvd,-98.4718245640397,29.5264753211854,"['Fast Food', 'American (Traditional)', 'Chicken Wings']","['9800', 'airport', 'blvd']",9800,airport blvd,Raising Cane's Chicken Fingers,raising canes chicken fingers,airport
136,(210) 375-6106,6479.493115960667,TtmqkXT7s93IJbhQgp_M3g,False,Rookies Too Bar & Grill,+12103756106,$$,4.5,44,['delivery'],9200 broadway st,-98.456733,29.523841,"['Sports Bars', 'American (Traditional)']","['9200', 'broadway', 'st']",9200,broadway st,Rookies Too Bar & Grill,rookies too bar  grill,broadway
137,(210) 973-5911,8374.382351348257,5_Xa4gg8vzRIsVQf_3t-qw,False,Margaritaville - San Antonio,+12109735911,$$,3.0,407,"['pickup', 'delivery']",849 e commerce st,-98.484979271402,29.4236174761207,"['Bars', 'American (Traditional)', 'Music Venues']","['849', 'e', 'commerce', 'st']",849,e commerce st,Margaritaville - San Antonio,margaritaville  s antonio,e commerce
138,(210) 826-8303,6703.068365618122,s104UuqsqwqNgC5jppH08Q,False,Mama's Cafe,+12108268303,$$,3.5,180,['delivery'],2442 nacogdoches rd,-98.45032,29.51737,"['Cafes', 'American (Traditional)']","['2442', 'nacogdoches', 'rd']",2442,nacogdoches rd,Mama's Cafe,mamas cafe,nacogdoches
139,(210) 359-0245,14714.5951090947,ZcYgWO8XXgS_AqAAShf9lg,False,Chatman's Chicken,+12103590245,$,4.0,98,['delivery'],1747 s ww white rd,-98.405858,29.401825,"['Fast Food', 'Chicken Wings', 'American (Traditional)']","['1747', 's', 'ww', 'white', 'rd']",1747,s ww white rd,Chatman's Chicken,chatmans chicken,swhite
140,(210) 447-7102,3000.2587072229107,lcLRd7I5iJdIqvAbIdktlQ,False,Twin Peaks,+12104477102,$$,3.0,230,['delivery'],702 nw loop 410,-98.503753,29.519778,"['American (New)', 'Sports Bars']","['702', 'nw', 'loop', '410']",702,nw loop 410,Twin Peaks,tw peaks,nw loop 410
141,(210) 690-3808,8586.64639358246,e2HpfHnBzJlWVwhLGJKeYw,False,Cracker Barrel Old Country Store,+12106903808,$$,3.5,168,['delivery'],11030 w interstate 10,-98.5813916872515,29.5450869789352,"['Breakfast & Brunch', 'Southern', 'American (Traditional)']","['11030', 'w', 'interstate', '10']",11030,w interstate 10,Cracker Barrel Old Country Store,cracker barr old country store,w interstate 10
142,(210) 342-5454,4225.892187555005,nMxfFIK0rIeCcrzLJaBy8A,False,54th Street Restaurant & Drafthouse,+12103425454,$$,4.0,98,['delivery'],954 rector st,-98.478771,29.516469,"['Bars', 'American (Traditional)', 'Burgers']","['954', 'rector', 'st']",954,rector st,54th Street Restaurant & Drafthouse,54th street restaurant  drafthouse,rector
143,(210) 828-5392,6121.100318053785,tcHNG_d7lW7hzlbIKGrTHQ,False,Good Time Charlie's Bar & Cafe,+12108285392,$$,3.0,247,['delivery'],2922 broadway st,-98.4712295532227,29.4541168212891,['American (Traditional)'],"['2922', 'broadway', 'st']",2922,broadway st,Good Time Charlie's Bar & Cafe,good time charlies bar  cafe,broadway
144,(210) 222-9923,7015.231809082446,L-T93cgszH0AyPLP6JDxrQ,False,San Antonio Pig Stand,+12102229923,$,3.0,189,"['pickup', 'delivery']",1508 broadway st,-98.477524,29.440131,['American (Traditional)'],"['1508', 'broadway', 'st']",1508,broadway st,San Antonio Pig Stand,s antonio pig stand,broadway
145,(210) 824-2700,4994.156041703781,7jtwhwnEKEA9XJKV3ivsFA,False,The Hangar,+12108242700,$,3.5,133,[],8203 broadway,-98.466695,29.511558,"['Sports Bars', 'American (Traditional)']","['8203', 'broadway']",8203,broadway,The Hangar, hangar,broadway
146,(210) 455-2834,6697.108471218708,rEopL6ttupp6_nbBlpPjLA,False,The Good Kind,+12104552834,$$,4.0,88,"['pickup', 'delivery']",312 pearl pkwy,-98.480582,29.441899,"['Caterers', 'Vegetarian', 'American (Traditional)']","['312', 'pearl', 'pkwy']",312,pearl pkwy,The Good Kind, good kind,pearl pkwy
147,(210) 558-1900,14341.266777331144,Q9taWRIDBq3FALQiht7kUw,False,The Cheesecake Factory,+12105581900,$$,3.0,310,[],15900 la cantera pkwy,-98.610858,29.592382,"['Desserts', 'American (Traditional)']","['15900', 'la', 'cantera', 'pkwy']",15900,la cantera pkwy,The Cheesecake Factory, cheesecake factory,la cantera pkwy
148,(210) 368-2957,8553.398529819842,jbXwuXAGmXfBnBwY8FpnGA,False,Mr. C's Fried Chicken and Waffles,+12103682957,$$,4.0,68,[],9390 huebner rd,-98.592836,29.529911,"['Breakfast & Brunch', 'American (Traditional)', 'Waffles']","['9390', 'huebner', 'rd']",9390,huebner rd,Mr. C's Fried Chicken and Waffles,mr. cs fried chicken and waffles,huebner
149,(210) 932-8040,5557.329979396636,u5g93ZZXBaNyhdAkekUPwg,False,Frontier Burger,+12109328040,$,3.0,168,['delivery'],838 ne lp 410,-98.4638916,29.5162364,"['Burgers', 'Salad', 'American (Traditional)']","['838', 'ne', 'lp', '410']",838,ne lp 410,Frontier Burger,frontier burger,ne lp 410
150,(210) 521-3570,10811.438156204427,ZZxsjzVhEnIxHP-BMKy8BQ,False,Saltgrass Steak House,+12105213570,$$,3.5,149,"['pickup', 'delivery']",2885 cinema ridge rd,-98.6199758,29.4627013329082,"['Steakhouses', 'Seafood', 'American (Traditional)']","['2885', 'cinema', 'ridge', 'rd']",2885,cinema ridge rd,Saltgrass Steak House,saltgrass steak house,cinema ridge
151,(210) 828-1111,5485.113915085766,w32HV13y36-d7OhBPIbsjw,False,EZ's Brick Oven and Grill,+12108281111,$$,4.0,62,"['pickup', 'delivery']",6498 n new braunfels ave,-98.4579261298834,29.4903574944657,"['Burgers', 'Pizza', 'American (New)']","['6498', 'n', 'new', 'braunfels', 'ave']",6498,n new braunfels ave,EZ's Brick Oven and Grill,ezs brick oven and grill,new braunfelse
152,(210) 600-9464,12965.79823071489,MOmw-ofkvS-zYYIMrzwD7A,False,Pluckers Wing Bar,+12106009464,$$,3.5,269,[],15651 i-10 w,-98.596729,29.586453,"['Chicken Wings', 'American (Traditional)']","['15651', 'i-10', 'w']",15651,i-10 w,Pluckers Wing Bar,pluckers wing bar,i-10
153,(210) 532-3318,11204.008877897146,ET1s1FC_k0Yezg3EGFN7Mw,False,Mittman Fine Foods,+12105323318,$,4.5,30,['delivery'],1125 s mittman st,-98.4546699,29.40823,"['American (Traditional)', 'Tex-Mex']","['1125', 's', 'mittman', 'st']",1125,s mittman st,Mittman Fine Foods,mittm fine foods,s mittman
154,(210) 337-4007,12430.626069505272,chd4quXt3Tj7cRv89Ci1yA,False,Radicke's Bluebonnet Grill,+12103374007,$,4.0,60,['delivery'],237 n ww white rd,-98.40588,29.43466,['American (Traditional)'],"['237', 'n', 'ww', 'white', 'rd']",237,n ww white rd,Radicke's Bluebonnet Grill,radickes bluebonnet grill,nwhite
155,(210) 223-1208,6369.961488336182,8QFxAjFqd9oGjBJ5pRBusQ,False,M K Davis Restaurant & Bar,+12102231208,$,3.5,123,['delivery'],1302 n flores st,-98.502571105957,29.4382781982422,"['Mexican', 'Seafood', 'American (Traditional)']","['1302', 'n', 'flores', 'st']",1302,n flores st,M K Davis Restaurant & Bar,m k davis restaurant  bar,n flores
156,(210) 223-9374,8216.31482191061,_3hMVfln8MJmSxWqqVr57A,False,Lone Star Cafe,+12102239374,$$,2.5,544,['delivery'],237 losoya st,-98.4879758,29.4244902,"['Steakhouses', 'American (Traditional)']","['237', 'losoya', 'st']",237,losoya st,Lone Star Cafe,lone star cafe,losoya
157,(210) 694-0825,6290.8331084919055,f9B_Lpl9cw_xuwouFe8KLA,False,Fuddruckers,+12106940825,$$,4.0,69,"['pickup', 'delivery']",9845 ih-10 w,-98.562051,29.532928,"['Burgers', 'American (Traditional)']","['9845', 'ih-10', 'w']",9845,ih-10 w,Fuddruckers,fuddruckers,ih-10
158,(210) 447-7010,7922.150916215015,TFrkQ4tnZJ7B77YTjolK2w,False,Maverick Whiskey,+12104477010,,4.0,49,[],115 broadway st,-98.4878460690379,29.4270496817459,"['American (Traditional)', 'Distilleries']","['115', 'broadway', 'st']",115,broadway st,Maverick Whiskey,maverick whiskey,broadway
159,(210) 229-1526,10933.930900035992,EH5GkBPt7g10V13iIuoofw,False,Texas Burger Company,+12102291526,$,4.5,26,['delivery'],3038 e commerce,-98.44146,29.41936,"['American (Traditional)', 'Burgers', 'Fast Food']","['3038', 'e', 'commerce']",3038,e commerce,Texas Burger Company,texas burger company,e commerce
160,(210) 731-8091,5643.116721977622,A1nSOek28J5rv7Mp3GwOGw,False,Red Lobster,+12107318091,$$,3.5,67,['delivery'],4550 nw loop 410,-98.57234,29.48875,"['Seafood', 'American (Traditional)']","['4550', 'nw', 'loop', '410']",4550,nw loop 410,Red Lobster,red lobster,nw loop 410
161,(210) 271-9981,8018.606568713825,arAjKa-Vn7jGw9RPKevNsw,False,Joe's Crab Shack,+12102719981,$$,3.0,227,['delivery'],212 college st,-98.4892103075981,29.4257425942482,"['Seafood', 'American (Traditional)']","['212', 'college', 'st']",212,college st,Joe's Crab Shack,joes crab shack,college
162,(210) 692-1500,7163.898410710331,Hn3hRz1yWF2jYYL3Y5US6w,False,Little Woodrows Babcock,+12106921500,$$,3.0,208,['delivery'],2535 babcock rd,-98.58714,29.50794,"['Sports Bars', 'American (Traditional)']","['2535', 'babcock', 'rd']",2535,babcock rd,Little Woodrows Babcock,little woodrows babcock,babcock
163,(210) 277-6300,8131.828139902041,S1_O_MKvthCTiKO-KotGyA,False,Rainforest Cafe,+12102776300,$$,2.5,522,"['pickup', 'delivery']",110 e crockett,-98.4882954,29.42493,"['American (Traditional)', 'Seafood', 'Steakhouses']","['110', 'e', 'crockett']",110,e crockett,Rainforest Cafe,rainforest cafe,e crockett
164,(210) 690-8100,12808.288647982983,zLEzYXyDT1uFL3DDkAjVjg,False,Cheddar's Scratch Kitchen,+12106908100,$$,3.0,273,[],15607 ih-10 w,-98.5963740969656,29.5848950466633,"['Comfort Food', 'American (Traditional)']","['15607', 'ih-10', 'w']",15607,ih-10 w,Cheddar's Scratch Kitchen,cheddars scratch kitchen,ih-10
165,(210) 979-9763,3688.7244722721666,PdjGAlf8QnLtzlr3Lg5W_Q,False,Saltgrass Steak House,+12109799763,$$,3.5,86,"['pickup', 'delivery']",60 ne interstate 410 lp,-98.4896058171967,29.5196315733414,"['Steakhouses', 'Seafood', 'American (Traditional)']","['60', 'ne', 'interstate', '410', 'lp']",60,ne interstate 410 lp,Saltgrass Steak House,saltgrass steak house,ne interstate 410 lp
166,(210) 495-3447,11841.60170362836,wEHlXVHsJ4K-jrWArZrDcA,False,First Watch,+12104953447,$$,3.5,103,[],16668 san pedro ave,-98.471861,29.594294,"['Breakfast & Brunch', 'Cafes', 'American (Traditional)']","['16668', 'san', 'pedro', 'ave']",16668,san pedro ave,First Watch,first watch,san pedroe
167,(210) 462-1894,10992.52403164311,0OuFt5odhyAnQ8f0dl9g3g,False,Lucy Cooper's Ice House,+12104621894,$$,3.0,182,[],16080 san pedro ave,-98.4740504622459,29.5868524686695,"['Bars', 'American (Traditional)']","['16080', 'san', 'pedro', 'ave']",16080,san pedro ave,Lucy Cooper's Ice House,lucy coopers ice house,san pedroe
168,(210) 223-4881,8232.908053511926,8xUmlzM6GfyQ88PUP8Zh3g,False,The Republic Of Texas Restaurant,+12102234881,$$,2.5,308,['delivery'],429 e commerce st,-98.48824,29.42402,"['Mexican', 'Steakhouses', 'American (Traditional)']","['429', 'e', 'commerce', 'st']",429,e commerce st,The Republic Of Texas Restaurant, republic  texas restaurant,e commerce
169,(210) 515-1515,3482.617238452296,99EX0yPAXgHZHlnjwnWI_w,False,Dave & Buster's,+12105151515,$$,2.5,339,[],440 crossroads blvd,-98.5503227,29.4963229,"['American (Traditional)', 'Arcades', 'Bars']","['440', 'crossroads', 'blvd']",440,crossroads blvd,Dave & Buster's,dave  busters,crossroads
170,(210) 696-4025,13714.055864007449,H7UHjgFcNB5r1keqazt7Dg,False,LongHorn Steakhouse,+12106964025,$$,3.0,148,['delivery'],5803 n loop 1604 w,-98.6010097070633,29.592081883817,"['Steakhouses', 'American (Traditional)', 'Barbeque']","['5803', 'n', 'loop', '1604', 'w']",5803,n loop 1604 w,LongHorn Steakhouse,longhorn steakhouse,n loop 1604
171,(210) 525-8110,4006.9057727389854,qIRaxr3CDlBLvn6up-ec9g,False,Cracker Barrel Old Country Store,+12105258110,$$,3.0,144,['delivery'],98 ne loop 410,-98.484677718316,29.5195225208489,"['Breakfast & Brunch', 'Southern', 'American (Traditional)']","['98', 'ne', 'loop', '410']",98,ne loop 410,Cracker Barrel Old Country Store,cracker barr old country store,ne loop 410
172,(210) 691-0665,8461.247614882785,xAyEV7N9Gs4-gQCpLeBtkg,False,Jim's Restaurants,+12106910665,$,3.0,103,['delivery'],11006 w interstate 10,-98.580139875412,29.5446197881832,"['American (Traditional)', 'Diners', 'Breakfast & Brunch']","['11006', 'w', 'interstate', '10']",11006,w interstate 10,Jim's Restaurants,jims restaurants,w interstate 10
173,(210) 340-4577,5223.717251038866,6w4tt7OQFtQg_Tlqlps6-w,False,Highlander Bar and Grill,+12103404577,$,3.0,89,['delivery'],5562 fredericksburg rd,-98.5655136108398,29.5096302032471,"['American (Traditional)', 'Bars', 'Breakfast & Brunch']","['5562', 'fredericksburg', 'rd']",5562,fredericksburg rd,Highlander Bar and Grill,highlander bar and grill,fredericksburg
174,(210) 558-8646,8830.976886492655,ib8OCg14iiIQPzrVDDzq0Q,False,Tia's Taco Hut,+12105588646,$,3.5,96,[],5730 babcock rd,-98.5995325818658,29.5230514828012,"['Mexican', 'American (Traditional)', 'Burgers']","['5730', 'babcock', 'rd']",5730,babcock rd,Tia's Taco Hut,tias taco hut,babcock
175,(210) 495-0970,11577.599905346078,ymydW_BmNX6VWbxItdlhfA,False,Evil Olive,+12104950970,$,3.5,68,[],2950 thousand oaks,-98.441257,29.576844,"['Sports Bars', 'American (Traditional)']","['2950', 'thousand', 'oaks']",2950,thousand oaks,Evil Olive,evil olive,thousand oaks
176,(210) 690-1156,11363.238619987802,93ouNSh8-gHqSZGbk_WjlQ,False,Shenanygans,+12106901156,$,3.5,55,[],6422 babcock rd,-98.6154403686523,29.5462894439697,"['Sports Bars', 'Lounges', 'American (Traditional)']","['6422', 'babcock', 'rd']",6422,babcock rd,Shenanygans,shenanygans,babcock
177,(210) 225-5100,8042.806446886037,kXkUTudhzf6cYD0K4FKiaQ,False,Oro Restaurant and Bar,+12102255100,$$,3.5,75,"['pickup', 'delivery']",705 e houston st,-98.4858114,29.426527,"['Bars', 'American (Traditional)']","['705', 'e', 'houston', 'st']",705,e houston st,Oro Restaurant and Bar,oro restaurant and bar,e houston
178,(210) 468-2100,11159.360537751927,IzOsMfLgTLMX4sSERjmBlw,False,The Dog House Bar & Grill,+12104682100,,4.0,27,[],16111 san pedro ave,-98.47555,29.58858,"['Bars', 'American (Traditional)']","['16111', 'san', 'pedro', 'ave']",16111,san pedro ave,The Dog House Bar & Grill, dog house bar  grill,san pedroe
179,(210) 832-0050,5570.5105756188,LAE_CaIR65OVyN1Nb54r_Q,False,Broadway 5050,+12108320050,$,3.5,139,['delivery'],5050 broadway st,-98.46243,29.47291,"['American (Traditional)', 'Bars', 'Breakfast & Brunch']","['5050', 'broadway', 'st']",5050,broadway st,Broadway 5050,broadway 5050,broadway
180,(210) 598-2083,6559.7155197683405,oxsdn9ft_CD4yW35J39Jpw,False,Groove House,+12105982083,$$,3.5,39,"['pickup', 'delivery']",12333 west ave,-98.50303,29.55261,"['Bars', 'American (Traditional)']","['12333', 'west', 'ave']",12333,west ave,Groove House,groove house,weste
181,(210) 558-9464,6386.657119581798,QFNs2dKe4-v2oKCXYmxc4g,False,Hooters,+12105589464,$$,3.0,118,['delivery'],8527 wurzbach rd,-98.572868119626,29.5210869822994,"['Chicken Wings', 'Sports Bars', 'American (Traditional)']","['8527', 'wurzbach', 'rd']",8527,wurzbach rd,Hooters,hooters,wurzbach
182,(210) 694-5912,13703.001314421548,aX7pn4-f5dHyclDHpuy9tg,False,Red Lobster,+12106945912,$$,3.5,80,['delivery'],5815 n loop 1604 w,-98.601562,29.591583,"['Seafood', 'American (Traditional)']","['5815', 'n', 'loop', '1604', 'w']",5815,n loop 1604 w,Red Lobster,red lobster,n loop 1604
183,(210) 599-8080,10991.517193274982,fAiHAHuFAp0h116WhMCuJw,False,Cracker Barrel Old Country Store,+12105998080,$$,2.5,155,[],6330 n interstate 35,-98.401231794459,29.4862529719322,"['Breakfast & Brunch', 'Southern', 'American (Traditional)']","['6330', 'n', 'interstate', '35']",6330,n interstate 35,Cracker Barrel Old Country Store,cracker barr old country store,n interstate 35
184,(210) 341-7138,2943.7923605566302,UsONp-NB_S0dLZHpuMZrNw,False,Jim's Restaurants,+12103417138,$,3.0,87,['delivery'],842 nw lp 410,-98.506072,29.5199,"['American (Traditional)', 'Diners', 'Breakfast & Brunch']","['842', 'nw', 'lp', '410']",842,nw lp 410,Jim's Restaurants,jims restaurants,nw lp 410
185,(210) 828-5120,5903.670292423334,xIbOudvBkjHTAXwHBu5ODg,False,Jim's Restaurants,+12108285120,$,3.5,56,['delivery'],4108 broadway st,-98.46423,29.4643,"['American (Traditional)', 'Diners', 'Breakfast & Brunch']","['4108', 'broadway', 'st']",4108,broadway st,Jim's Restaurants,jims restaurants,broadway
186,(210) 824-6703,5887.009921056096,9zN8balmWkZYzAOiNiJ6FA,False,Fuddruckers,+12108246703,$$,3.0,64,"['pickup', 'delivery']",8602 botts ln,-98.4601799,29.51814,"['Burgers', 'American (Traditional)']","['8602', 'botts', 'ln']",8602,botts ln,Fuddruckers,fuddruckers,botts ln
187,(210) 826-7001,5333.3044187751175,7KgOILqNcFqiqDlN5IrjkQ,False,Jim's Restaurants,+12108267001,$,3.0,76,['delivery'],8427 broadway st,-98.4652,29.51623,"['American (Traditional)', 'Diners', 'Breakfast & Brunch']","['8427', 'broadway', 'st']",8427,broadway st,Jim's Restaurants,jims restaurants,broadway
188,(210) 574-1419,8414.851900533693,b1nrCG9Cmjymoa-SKq7cUw,False,Mr. P's,+12105741419,$,4.5,13,"['pickup', 'delivery']",1601 guadalupe st,-98.51778,29.41885,"['American (Traditional)', 'Tacos', 'Hot Dogs']","['1601', 'guadalupe', 'st']",1601,guadalupe st,Mr. P's,mr. ps,guadalupe
189,(210) 634-1405,6308.236109653944,UjVywhXD4qYvi1lf3AOEXw,False,Backyard on Broadway,+12106341405,,3.5,38,[],2411 broadway st,-98.4754939002743,29.4489310360266,"['Bars', 'American (Traditional)', 'Pizza']","['2411', 'broadway', 'st']",2411,broadway st,Backyard on Broadway,backyard  broadway,broadway
190,(210) 877-6254,6368.566661738348,qQKnIO5lWsGQc0SqVBKCFA,False,54th Street Restaurant & Drafthouse,+12108776254,$$,4.0,21,[],9907 ih 10 w,-98.563752,29.5334943,"['Bars', 'American (Traditional)', 'Burgers']","['9907', 'ih', '10', 'w']",9907,ih 10 w,54th Street Restaurant & Drafthouse,54th street restaurant  drafthouse,ih 10
191,(210) 979-7701,4119.340998656029,1muWry_IbUIxl3TO14c_TQ,False,Applebee's Grill + Bar,+12109797701,$$,2.5,87,['delivery'],97 loop 410 ne,-98.484795,29.521054,"['Sports Bars', 'Burgers', 'American (Traditional)']","['97', 'loop', '410', 'ne']",97,loop 410 ne,Applebee's Grill + Bar,applebees grill + bar,loop 410e
192,(210) 223-1911,6709.619901308233,GszTcKbwpAI5xPlpj-hcGQ,False,Luby's,+12102231911,$$,3.0,64,['delivery'],911 north main ave,-98.49477,29.43667,"['American (Traditional)', 'Buffets']","['911', 'north', 'main', 'ave']",911,north main ave,Luby's,lubys,north maine
193,(210) 496-9464,8016.993382929228,8BeLovoIa3OqMkCAk8Spcw,False,Hooters,+12104969464,$$,2.5,102,['delivery'],13131 san pedro,-98.484272,29.5616008,"['Chicken Wings', 'Sports Bars', 'American (Traditional)']","['13131', 'san', 'pedro']",13131,san pedro,Hooters,hooters,san pedro
194,(210) 561-2222,8731.319353919991,EHz6CFByY7j_Uz4XFX04tA,False,Babe's Old Fashioned Food,+12105612222,$,2.5,106,"['delivery', 'pickup']",9207 huebner rd,-98.59567,29.52898,"['Burgers', 'Pizza', 'American (Traditional)']","['9207', 'huebner', 'rd']",9207,huebner rd,Babe's Old Fashioned Food,babes old fashioned food,huebner
195,(210) 951-3600,8291.792534875645,O40GqtCvXRKDBleHOJ352g,False,Dave & Buster's,+12109513600,$$,2.5,137,[],849 e commerce st,-98.4867681904213,29.4238574695132,"['American (Traditional)', 'Arcades', 'Bars']","['849', 'e', 'commerce', 'st']",849,e commerce st,Dave & Buster's,dave  busters,e commerce
196,(210) 377-4653,3234.1193187154545,I5OTL3dogiA0d80uuo8wwg,False,Asado Seafood and Grill,+12103774653,$$$,3.5,31,[],611 nw loop 410,-98.5023566825292,29.5215678883626,"['Seafood', 'American (Traditional)']","['611', 'nw', 'loop', '410']",611,nw loop 410,Asado Seafood and Grill,asado seafood and grill,nw loop 410
197,(210) 616-2504,8960.522091904233,9s-81E6hfzEDQ6tBuFbz9A,False,Jokesters 22 Pub N Grub,+12106162504,,4.5,15,[],713 s alamo st,-98.4886413440108,29.4170396376624,"['Sports Bars', 'American (Traditional)', 'Comedy Clubs']","['713', 's', 'alamo', 'st']",713,s alamo st,Jokesters 22 Pub N Grub,jokesters 22 pub n grub,s alamo
198,(210) 694-9464,11182.054976786447,S8SnPUgdh8lKIsASzddGYQ,False,Buffalo Wild Wings,+12106949464,$$,2.5,136,['delivery'],5860 de zavala rd,-98.5993163,29.56266,"['Sports Bars', 'Chicken Wings', 'American (Traditional)']","['5860', 'de', 'zavala', 'rd']",5860,de zavala rd,Buffalo Wild Wings,buffalo wild wings,de zavala
199,(210) 637-5673,10536.737126418053,KzEfI8Xg8cxSKGfYAznKDg,False,Family Life Bistro,+12106375673,$$,4.5,12,['delivery'],5814 rittiman plz,-98.40651,29.48286,"['Soul Food', 'American (Traditional)']","['5814', 'rittiman', 'plz']",5814,rittiman plz,Family Life Bistro,family life bistro,rittiman plz
200,(210) 641-2408,12822.41181575453,Ai6_8kZnkiGMtQUwU2D_dg,False,Applebee's Grill + Bar,+12106412408,$$,3.0,73,"['delivery', 'pickup']",15802 ih-10 w,-98.589475,29.589475,"['Sports Bars', 'Burgers', 'American (Traditional)']","['15802', 'ih-10', 'w']",15802,ih-10 w,Applebee's Grill + Bar,applebees grill + bar,ih-10
201,(210) 824-6348,7626.0569007035865,mAswF_sDDbJO44LyxlHzeg,False,Astro SuperBowl,+12108246348,$,3.5,40,[],3203 harry wurzbach rd,-98.43561,29.4944,"['Bowling', 'Bars', 'American (Traditional)']","['3203', 'harry', 'wurzbach', 'rd']",3203,harry wurzbach rd,Astro SuperBowl,astro superbowl,harryurzbach
202,(210) 733-1972,3799.1859686135176,FhXOZjW695Ko60O2CXt_8w,False,Luby's,+12107331972,$$,3.0,57,['delivery'],4541 fredericksburg rd,-98.5534665117397,29.491069504739,"['American (Traditional)', 'Buffets']","['4541', 'fredericksburg', 'rd']",4541,fredericksburg rd,Luby's,lubys,fredericksburg
203,(210) 732-8256,3429.722460653694,aI6HF4VTopuvNuIxeeKZpw,False,Jim's Restaurants,+12107328256,$,3.0,59,[],351 w hildebrand ave,-98.4987563,29.466765,"['American (Traditional)', 'Diners', 'Breakfast & Brunch']","['351', 'w', 'hildebrand', 'ave']",351,w hildebrand ave,Jim's Restaurants,jims restaurants,w hildebrande
204,(210) 223-1681,7656.654174514955,kF5X2_dprOjSZRO9P_7LTQ,False,Golden Star Cafe,+12102231681,$,3.0,56,['delivery'],821 w commerce st,-98.50331,29.42627,"['Chinese', 'American (Traditional)', 'Mexican']","['821', 'w', 'commerce', 'st']",821,w commerce st,Golden Star Cafe,golden star cafe,w commerce
205,(210) 377-3333,3652.4361263320097,RDTqU07DJGKq5CyPNzOfZQ,False,TGI Fridays,+12103773333,$$,2.0,197,['delivery'],29 ne loop 410,-98.49222,29.52113,['American (Traditional)'],"['29', 'ne', 'loop', '410']",29,ne loop 410,TGI Fridays,tgi fridays,ne loop 410
206,(210) 348-6405,3981.4752269496553,UzkjVkmPvZZGKkqy270lyw,False,Logan's Roadhouse,+12103486405,$$,2.0,202,['delivery'],92 ne loop 410,-98.484885,29.51938,"['Steakhouses', 'American (Traditional)', 'Barbeque']","['92', 'ne', 'loop', '410']",92,ne loop 410,Logan's Roadhouse,logans roadhouse,ne loop 410
207,(210) 225-6196,8235.204962469983,uX4GiW792_5Ivh1SGs3SKw,False,Colonial Room Restaurant,+12102256196,$$,3.0,48,[],204 alamo plz,-98.485931,29.42465,['American (Traditional)'],"['204', 'alamo', 'plz']",204,alamo plz,Colonial Room Restaurant,colonial room restaurant,alamo plz
208,(210) 227-8500,10297.684851000107,IBBLZkgRbIpvA2jPYFd4lQ,False,Longoria's Grocery & Grill,+12102278500,$,5.0,7,['delivery'],201 brady blvd,-98.52442,29.40225,"['American (Traditional)', 'Burgers']","['201', 'brady', 'blvd']",201,brady blvd,Longoria's Grocery & Grill,longorias grocery  grill,brady
209,(210) 223-9944,8237.391219180608,rgrFmXV-ToS1EzC9QDYHlg,False,Fuddruckers,+12102239944,$$,2.5,86,"['delivery', 'pickup']",115 alamo plz,-98.4874877929688,29.424165725708,"['Burgers', 'American (Traditional)']","['115', 'alamo', 'plz']",115,alamo plz,Fuddruckers,fuddruckers,alamo plz
210,(210) 349-5952,2776.833182797792,Gg2fa6y78F1WoxLQLA6vrQ,False,Denny's,+12103495952,$,3.0,56,"['delivery', 'pickup']",6801 blanco rd,-98.507284373045,29.5186300204222,"['Diners', 'American (Traditional)', 'Breakfast & Brunch']","['6801', 'blanco', 'rd']",6801,blanco rd,Denny's,dennys,blanco
211,(210) 732-5491,3859.990229986901,nIHAvP_UGnEFHs8aj-LttQ,False,Jim's Restaurants,+12107325491,$,3.0,66,['delivery'],3319 hillcrest dr,-98.5542,29.4922,"['American (Traditional)', 'Diners', 'Breakfast & Brunch']","['3319', 'hillcrest', 'dr']",3319,hillcrest dr,Jim's Restaurants,jims restaurants,hillcrest
212,(210) 229-9464,8364.524097119129,o6uGVu7eEgt-RceMmiP80A,False,Hooters,+12102299464,$$,2.5,145,['delivery'],849 e commerce st,-98.484969,29.423715,"['Chicken Wings', 'Sports Bars', 'American (Traditional)']","['849', 'e', 'commerce', 'st']",849,e commerce st,Hooters,hooters,e commerce
213,(210) 222-2222,12197.386381095072,wyaJoS0ZhbuZhAxP9Me_wQ,False,Hangar Pub,+12102222222,$$,4.5,16,['delivery'],12234 nacogdoches rd,-98.4063806552363,29.5509815481936,"['American (Traditional)', 'Burgers', 'Pubs']","['12234', 'nacogdoches', 'rd']",12234,nacogdoches rd,Hangar Pub,hangar pub,nacogdoches
214,(210) 223-4321,8495.805954247877,8OUb8P8J7jQR0YH5d06jkQ,False,Denny's,+12102234321,$,2.0,163,"['delivery', 'pickup']",903 e commerce st,-98.4829037544023,29.4231263651822,"['Diners', 'American (Traditional)', 'Breakfast & Brunch']","['903', 'e', 'commerce', 'st']",903,e commerce st,Denny's,dennys,e commerce
215,(210) 699-6652,8550.101551344564,rB6AQLmqUxz1187dFGlQHQ,False,Luby's,+12106996652,$,3.0,54,['delivery'],9251 floyd curl dr,-98.59363,29.52847,"['American (Traditional)', 'Buffets']","['9251', 'floyd', 'curl', 'dr']",9251,floyd curl dr,Luby's,lubys,floyd curl
216,(210) 593-0343,5947.380352186479,ycT4J1KFTua5oRITMp5hcg,False,Denny's,+12105930343,$,2.5,74,"['delivery', 'pickup']",9550 i-10 w,-98.561169,29.5291443,"['Diners', 'American (Traditional)', 'Breakfast & Brunch']","['9550', 'i-10', 'w']",9550,i-10 w,Denny's,dennys,i-10
217,(210) 558-7788,9991.04215671326,EdYNiXHD1bRCvIO5e6om4A,False,Chili's,+12105587788,$$,2.5,80,['delivery'],12503 ih 10w,-98.5878496040742,29.5575985015134,"['Tex-Mex', 'Bars', 'American (Traditional)']","['12503', 'ih', '10w']",12503,ih 10w,Chili's,chilis,ih 10w
218,(210) 404-0121,11768.846119821052,vUxp8uGAiuaAa4ucDYPAjg,False,Sideliners Grill,+12104040121,$,2.5,92,"['delivery', 'pickup']",15630 henderson pass,-98.45155,29.58508,"['Sports Bars', 'American (Traditional)']","['15630', 'henderson', 'pass']",15630,henderson pass,Sideliners Grill,sideliners grill,henderson pass
219,(210) 832-8037,5491.0463015155165,5SbaHv8JIXlP6ehYGKQ5BQ,False,Steak ’n Shake,+12108328037,$,2.5,59,[],9800 airport blvd,-98.471228,29.526481,"['Burgers', 'Fast Food', 'American (Traditional)']","['9800', 'airport', 'blvd']",9800,airport blvd,Steak ’n Shake,steak ’n shake,airport
220,(210) 680-8646,10567.570579496465,eSDs7bROwvHYNfv6f5tAyg,False,Tia's Taco Hut,+12106808646,$,4.0,107,[],6820 huebner rd,-98.6235027069286,29.4983059053327,"['Mexican', 'American (Traditional)', 'Burgers']","['6820', 'huebner', 'rd']",6820,huebner rd,Tia's Taco Hut,tias taco hut,huebner
221,(210) 224-7366,7844.775082126572,Irxm91jAsj7W0g260pKMnw,False,Ranchero Grill & Tap,+12102247366,$,4.0,11,[],612 w commerce st,-98.50063,29.4252,"['Mexican', 'American (Traditional)']","['612', 'w', 'commerce', 'st']",612,w commerce st,Ranchero Grill & Tap,ranchero grill  tap,w commerce
222,(210) 545-6072,8534.77311670428,fMa2MAVpwn1bi-STXsk--Q,False,Denny's,+12105456072,$,2.5,62,"['delivery', 'pickup']",13635 san pedro ave,-98.4829003384903,29.5661318562154,"['Diners', 'American (Traditional)', 'Breakfast & Brunch']","['13635', 'san', 'pedro', 'ave']",13635,san pedro ave,Denny's,dennys,san pedroe
223,(210) 804-1110,3133.879528887427,PFJBKcJXtRU2LTxiYJufoQ,False,Chili's,+12108041110,$$,2.5,70,['delivery'],255 e basse rd,-98.482048,29.495521,"['Tex-Mex', 'Bars', 'American (Traditional)']","['255', 'e', 'basse', 'rd']",255,e basse rd,Chili's,chilis,e basse
224,(210) 495-7427,12031.649273936895,_RKz5_paoofaq8qQo_Oprg,False,Texas Roadhouse,+12104957427,$$,3.5,185,[],16915 san pedro ave,-98.4730077362832,29.5964725570824,"['Steakhouses', 'Barbeque', 'American (Traditional)']","['16915', 'san', 'pedro', 'ave']",16915,san pedro ave,Texas Roadhouse,texas roadhouse,san pedroe
225,(210) 822-2639,5572.431859458674,nY-QLG0NmwOa61f8MiiTiA,False,Chili's,+12108222639,$$,2.5,51,['delivery'],8502 broadway st,-98.4632356265164,29.5174230447269,"['Tex-Mex', 'Bars', 'American (Traditional)']","['8502', 'broadway', 'st']",8502,broadway st,Chili's,chilis,broadway
226,(210) 257-5152,7859.7290440321485,FP1LoiGLdm3POFuQllS_5A,False,The Trophy Room,+12102575152,,4.5,9,[],214 broadway st,-98.4872871637344,29.4278138937888,"['Sports Bars', 'American (Traditional)']","['214', 'broadway', 'st']",214,broadway st,The Trophy Room, trophy room,broadway
227,(210) 212-8877,8361.851382278504,Pwc_9G0iQPBEbTUfqGqSZA,False,IHOP,+12102128877,$,3.0,35,[],849 e commerce st,-98.485808,29.42348,"['Breakfast & Brunch', 'American (Traditional)', 'Burgers']","['849', 'e', 'commerce', 'st']",849,e commerce st,IHOP,ihop,e commerce
228,(210) 690-3131,10604.484393844476,DrctqDTsFjMC_30dM7oiew,False,IHOP,+12106903131,$,2.0,87,[],12780 w ih 10,-98.59175,29.56201,"['Breakfast & Brunch', 'American (Traditional)', 'Burgers']","['12780', 'w', 'ih', '10']",12780,w ih 10,IHOP,ihop,w ih 10
229,(210) 496-2559,8040.532702809655,7USteVYdn1_y9XHn0UyueA,False,Luby's,+12104962559,$$,2.5,58,['delivery'],13400 san pedro ave,-98.48249,29.561204,"['American (Traditional)', 'Buffets']","['13400', 'san', 'pedro', 'ave']",13400,san pedro ave,Luby's,lubys,san pedroe
230,(210) 826-0713,5564.357431221986,0WkaKP76NPA2u-VVYEkTGg,False,Gervin's Sports Bar,+12108260713,$$,2.0,79,[],9800 airport blvd,-98.4706778985294,29.5269357710648,"['Sports Bars', 'American (Traditional)', 'Airport Lounges']","['9800', 'airport', 'blvd']",9800,airport blvd,Gervin's Sports Bar,gervins sports bar,airport
231,(210) 829-8211,5495.048644741557,OWPj7cowVwf2RS_In1a4IA,False,Charley's Grilled Subs,+12108298211,$$,3.0,21,[],9710 airport blvd,-98.4726355969906,29.5279176396803,"['American (Traditional)', 'Coffee & Tea']","['9710', 'airport', 'blvd']",9710,airport blvd,Charley's Grilled Subs,charleys grilled subs,airport
232,(210) 236-8080,9134.624555825374,FMO_owWeQ_RR_1NOC0pLRQ,False,Babcock Social Pub,+12102368080,$$,3.5,22,['delivery'],5891 babcock rd,-98.601137,29.526862,"['Sports Bars', 'Tacos', 'American (Traditional)']","['5891', 'babcock', 'rd']",5891,babcock rd,Babcock Social Pub,babcock social pub,babcock
233,(210) 212-8152,8353.333157407156,n1cdrb1XRkooSchPCDv__Q,False,Chili's,+12102128152,$$,2.0,100,['delivery'],849 e commerce st,-98.484966,29.423823,"['Tex-Mex', 'Bars', 'American (Traditional)']","['849', 'e', 'commerce', 'st']",849,e commerce st,Chili's,chilis,e commerce
234,(210) 967-6484,11394.487729306395,NMuxD2AYw96sIly0rFdHdA,False,Applebee's Grill + Bar,+12109676484,$$,2.0,94,['delivery'],7880 ih35 n,-98.39753,29.506827,"['Sports Bars', 'Burgers', 'American (Traditional)']","['7880', 'ih35', 'n']",7880,ih35 n,Applebee's Grill + Bar,applebees grill + bar,ih35
235,(210) 404-1699,9403.114843727384,mGFv0mvC3nTgf4RQin0ouA,False,IHOP,+12104041699,$,2.0,91,[],14424 san pedro ave,-98.4787,29.57309,"['Breakfast & Brunch', 'American (Traditional)', 'Burgers']","['14424', 'san', 'pedro', 'ave']",14424,san pedro ave,IHOP,ihop,san pedroe
236,(210) 680-5966,11954.62416770739,whz15HZOFHUoSQbx5WEnMg,False,Denny's,+12106805966,$,3.0,30,"['delivery', 'pickup']",7138 nw loop 410,-98.6286436021328,29.4536047944078,"['Diners', 'American (Traditional)', 'Breakfast & Brunch']","['7138', 'nw', 'loop', '410']",7138,nw loop 410,Denny's,dennys,nw loop 410
237,(210) 221-3106,7669.063400111422,U5HutiiwtVzj0Qr8u9CgLg,False,Rocco Dining Facility,+12102213106,$,4.5,5,[],2745 schofield rd,-98.4486974871409,29.4559064441488,['American (Traditional)'],"['2745', 'schofield', 'rd']",2745,schofield rd,Rocco Dining Facility,rocco dining facility,schofield
238,(210) 681-1867,8475.934251498116,D-Mh0_LrcdqlcSNO14I1Sg,False,Jim's Restaurants,+12106811867,$,3.0,28,['delivery'],5917 bandera rd,-98.60105,29.48351,"['American (Traditional)', 'Diners', 'Breakfast & Brunch']","['5917', 'bandera', 'rd']",5917,bandera rd,Jim's Restaurants,jims restaurants,bandera
239,(210) 267-9008,3663.7620413385316,kDFYyS85ZtmowF_DT7Pc-g,False,Rico's Diner,+12102679008,$,4.5,11,"['delivery', 'pickup']",4522 fredericksburg rd,-98.552202,29.492633,['American (Traditional)'],"['4522', 'fredericksburg', 'rd']",4522,fredericksburg rd,Rico's Diner,ricos diner,fredericksburg
240,(210) 691-1698,6631.5754991197155,t7O6yeG8doxp3e5tGdVIow,False,Anne Marie's Restaurant,+12106911698,,4.5,7,[],12475 starcrest,-98.575305,29.521783,"['American (Traditional)', 'Sandwiches']","['12475', 'starcrest']",12475,starcrest,Anne Marie's Restaurant,anne maries restaurant,starcrest
241,(210) 655-0718,10210.470351389946,Zx1VHaIuN0xO6RXqqqecqw,False,Jim's Restaurants,+12106550718,$,3.0,36,['delivery'],2630 ne loop 410,-98.4116476,29.5152713,"['American (Traditional)', 'Diners', 'Breakfast & Brunch']","['2630', 'ne', 'loop', '410']",2630,ne loop 410,Jim's Restaurants,jims restaurants,ne loop 410
242,(210) 224-3368,8018.38134450379,ptUy5XvQdYI_ePCbq-1zcg,False,Tex's Sports Bar,+12102243368,$$,2.0,63,[],hilton palacio del rio,-98.4903829682617,29.425427,"['American (Traditional)', 'Sports Bars']","['hilton', 'palacio', 'del', 'rio']",hilton,palacio del rio,Tex's Sports Bar,texs sports bar,palacio del rio
243,(210) 354-2800,7591.981501157297,l1IfNyGpJPWuI_eG1HjNWw,False,111 Grill,+12103542800,$$,3.5,12,['delivery'],111 e pecan st,-98.492656,29.4288403,"['American (Traditional)', 'Burgers', 'Sandwiches']","['111', 'e', 'pecan', 'st']",111,e pecan st,111 Grill,111 grill,e pecan
244,(210) 696-0833,8283.19669828346,x7JV_Gy2DjE6zwoNbiRWjA,False,City View Cafe,+12106960833,$,4.5,6,[],10999 w interstate 10,-98.577211,29.545056,['American (Traditional)'],"['10999', 'w', 'interstate', '10']",10999,w interstate 10,City View Cafe,city view cafe,w interstate 10
245,(210) 736-1965,2334.134611656169,Cn517HO7ir8vey2UGwzEwg,False,IHOP,+12107361965,$,2.5,43,[],6031 west ih 10,-98.53623,29.48551,"['Breakfast & Brunch', 'American (Traditional)', 'Burgers']","['6031', 'west', 'ih', '10']",6031,west ih 10,IHOP,ihop,west ih 10
246,(210) 522-1210,6856.296295182339,WQQ_-sBmHhXZuPdLQmIf9A,False,Chili's,+12105221210,$$,2.0,66,[],4983 nw loop 410,-98.5849252800485,29.4886029176951,"['Tex-Mex', 'Bars', 'American (Traditional)']","['4983', 'nw', 'loop', '410']",4983,nw loop 410,Chili's,chilis,nw loop 410
247,(210) 824-8113,5929.7715882307975,XjhdonSF7xSSYwnrvBhPEA,False,IHOP,+12108248113,$$,2.0,83,[],3820 broadway st,-98.46592,29.4618444,"['Breakfast & Brunch', 'American (Traditional)', 'Burgers']","['3820', 'broadway', 'st']",3820,broadway st,IHOP,ihop,broadway
248,(210) 207-3534,5638.69079269815,WSh32EeTWnRRUBWdQxPgag,False,R Sala Bebida Botana Bar,+12102073534,$$,3.0,19,[],9800 airport blvd,-98.4715703794216,29.5288181220608,"['Bars', 'American (Traditional)']","['9800', 'airport', 'blvd']",9800,airport blvd,R Sala Bebida Botana Bar,r sal bebid botan bar,airport
249,,7821.027299473518,zq1_8r9WdtmAPk7KeN4YaA,False,Gallery on the Park,,,4.0,5,['delivery'],300 e travis st,-98.4891388889567,29.4276306494612,['American (Traditional)'],"['300', 'e', 'travis', 'st']",300,e travis st,Gallery on the Park,gallery   park,e travis
250,(210) 930-3227,6271.367532435034,jEeYI8H_92CmMWO5tB3CjA,False,Luby's,+12109303227,$,2.5,36,['delivery'],8511 tesoro dr,-98.45489,29.51701,"['American (Traditional)', 'Buffets']","['8511', 'tesoro', 'dr']",8511,tesoro dr,Luby's,lubys,tesoro
251,(210) 224-1969,9513.930585378223,lwviMgio2yuC13DLAQh9qA,False,Greenwood's Bar & Grill,+12102241969,$,4.5,4,['delivery'],301 n new braunfels ave,-98.46154,29.42252,"['Bars', 'American (Traditional)']","['301', 'n', 'new', 'braunfels', 'ave']",301,n new braunfels ave,Greenwood's Bar & Grill,greenwoods bar  grill,new braunfelse
252,(210) 598-1419,5492.332765312892,oQl5mATHqGq_rpabEmHJlQ,False,Alamo Alehouse& Gourmet Burger Bar,+12105981419,$$,2.5,91,[],9800 airport blvd,-98.4728007639971,29.5280371584991,"['American (Traditional)', 'Burgers']","['9800', 'airport', 'blvd']",9800,airport blvd,Alamo Alehouse& Gourmet Burger Bar,alamo alehouse gourmet burger bar,airport
253,(210) 435-1608,9355.182816281646,JmcYcUlQMnzGGYyCTOQy9w,False,Luby's,+12104351608,$$,3.0,15,['delivery'],803 castroville rd,-98.55378,29.417608,"['American (Traditional)', 'Buffets']","['803', 'castroville', 'rd']",803,castroville rd,Luby's,lubys,castroville
254,(210) 272-1511,7939.195410317819,ZaOzNdgGNeC1RWfwenND3A,False,Windows On the River,+12102721511,$$,3.0,16,['delivery'],217 n st mary's,-98.49176,29.42587,['American (Traditional)'],"['217', 'n', 'st', ""mary's""]",217,n st mary's,Windows On the River,windows   river,n mary's
255,(210) 437-1271,6439.963216183762,xhgr63fx8t5_LNczXLCtkw,False,IHOP,+12104371271,,3.0,18,[],9911 w interstate 10,-98.56333,29.5337,"['Breakfast & Brunch', 'American (Traditional)', 'Burgers']","['9911', 'w', 'interstate', '10']",9911,w interstate 10,IHOP,ihop,w interstate 10
256,(210) 732-1907,3565.94834428237,EaHl9kgQR-JryEyaJX1TGA,False,Denny's,+12107321907,$,2.5,30,"['pickup', 'delivery']",4510 fredericksburg rd,-98.5509413480759,29.4903105768189,"['Diners', 'American (Traditional)', 'Breakfast & Brunch']","['4510', 'fredericksburg', 'rd']",4510,fredericksburg rd,Denny's,dennys,fredericksburg
257,(210) 525-8110,4011.588780494397,qmahbeNLNhlR3BaaV2mQVw,False,Cracker Barrel Old Country Store,+12105258110,$,2.5,24,[],98 ne hwy410,-98.48444433,29.51935833,"['Breakfast & Brunch', 'Southern', 'American (Traditional)']","['98', 'ne', 'hwy410']",98,ne hwy410,Cracker Barrel Old Country Store,cracker barr old country store,ne hwy410
258,(210) 673-3522,14849.954421088249,gSOxzvZHF-3RHt6wOlkxHA,False,Denny's,+12106733522,$$,2.0,53,"['pickup', 'delivery']",6859 highway 90 w,-98.6269499,29.40356,"['Diners', 'American (Traditional)', 'Breakfast & Brunch']","['6859', 'highway', '90', 'w']",6859,highway 90 w,Denny's,dennys,highway 90
259,(210) 680-3087,11074.396856180878,TlQp40j9MLuXTxfXoiNIww,False,Denny's,+12106803087,$,2.0,34,"['pickup', 'delivery']",6854 ingram rd,-98.62292754804,29.4629138083504,"['Diners', 'American (Traditional)', 'Breakfast & Brunch']","['6854', 'ingram', 'rd']",6854,ingram rd,Denny's,dennys,ingram
260,(210) 521-3663,6485.281438121192,dDyxLwY6UELUv2bt7UbuPQ,False,Corporate Square Cafe,+12105213663,$,4.0,4,[],4801 nw loop 410,-98.58103,29.49036,"['Coffee & Tea', 'Breakfast & Brunch', 'American (Traditional)']","['4801', 'nw', 'loop', '410']",4801,nw loop 410,Corporate Square Cafe,corporate square cafe,nw loop 410
261,(210) 509-7800,8637.27756214332,roGBN6TpQPWrAHSj-vufuA,False,IHOP,+12105097800,$,2.5,53,[],5920 bandera rd,-98.60265,29.48289,"['Breakfast & Brunch', 'American (Traditional)', 'Burgers']","['5920', 'bandera', 'rd']",5920,bandera rd,IHOP,ihop,bandera
262,,7716.659418380649,J4Z1eWx3IFq6voZEdXB6nA,False,AA Drive In,,,4.5,2,[],4103 w commerce st,-98.54396,29.42998,"['Burgers', 'American (Traditional)']","['4103', 'w', 'commerce', 'st']",4103,w commerce st,AA Drive In,a drive in,w commerce
263,,3772.3594190844983,FtQ8oCpNtGNwBVy93M_5ag,False,Bravo Bar & Grill,,$$,3.5,3,[],77 ne loop 410,-98.4899628161601,29.5208672497907,"['Cocktail Bars', 'American (Traditional)', 'Breakfast & Brunch']","['77', 'ne', 'loop', '410']",77,ne loop 410,Bravo Bar & Grill,bravo bar  grill,ne loop 410
264,(210) 227-3241,7838.153314562998,KxCglECqtVhlfoG0m-bTrw,False,Barron's Restaurant,+12102273241,$$,2.5,12,[],205 e houston st,-98.491,29.42686,['American (Traditional)'],"['205', 'e', 'houston', 'st']",205,e houston st,Barron's Restaurant,barrons restaurant,e houston
265,(210) 602-5807,11496.841532940341,Q145GTyx8lgUNj1PPOihfA,False,MalDonado's Grill,+12106025807,,4.5,2,[],2942 thousand oaks,-98.4402717277408,29.5752471746939,"['Food Trucks', 'American (Traditional)', 'Mexican']","['2942', 'thousand', 'oaks']",2942,thousand oaks,MalDonado's Grill,maldonados grill,thousand oaks
266,(210) 225-3211,8268.643479848643,tYTw09omzF8gnuBM7-lFVQ,False,Madera's,+12102253211,,3.0,6,['delivery'],318 w cesar e chavez,-98.5000784730184,29.4211301924384,"['Bars', 'American (Traditional)', 'Breakfast & Brunch']","['318', 'w', 'cesar', 'e', 'chavez']",318,w cesar e chavez,Madera's,maderas,w cesar chavez
267,,5169.330609675872,6_Eblox_13Q4D9hCijkS5Q,False,Salpicón Baja Street Grill,,,3.5,3,[],4263 nw lp 410,-98.56761,29.49008,['American (Traditional)'],"['4263', 'nw', 'lp', '410']",4263,nw lp 410,Salpicón Baja Street Grill,salpicón baj street grill,nw lp 410
268,,8522.975729041309,x3fBsUn3EIJBHHR_TLyLVg,False,The Bar At the Marriott Riverwalk,,,3.5,4,[],889 e riverwalk,-98.4846255,29.4229754,"['American (Traditional)', 'Bars']","['889', 'e', 'riverwalk']",889,e riverwalk,The Bar At the Marriott Riverwalk, bar at  marriott riverwalk,e riverwalk
269,(210) 270-0800,12964.288794098717,aSRNpAtDyHeVCQ06ERyetQ,False,Brickstones Kitchen & Bar,+12102700800,,4.0,2,"['pickup', 'delivery']",5615 landmark pkwy,-98.59546,29.58703,"['American (Traditional)', 'Bars']","['5615', 'landmark', 'pkwy']",5615,landmark pkwy,Brickstones Kitchen & Bar,brickstones kitchen  bar,landmark pkwy
270,(210) 458-7969,14104.73652697172,4L0LPQPILx_2XNU78xTkCQ,False,Chili's,+12104587969,$$,3.0,5,[],1 utsa cir,-98.6170659,29.5849108,"['Tex-Mex', 'Bars', 'American (Traditional)']","['1', 'utsa', 'cir']",1,utsa cir,Chili's,chilis,utsa cir
271,,10457.801717912056,AD2yHahLFQXLkytUiRFINw,False,The New Frontier Club,,$$,5.0,1,[],3201 e houston st,-98.43901,29.42948,['American (Traditional)'],"['3201', 'e', 'houston', 'st']",3201,e houston st,The New Frontier Club, new frontier club,e houston
272,(210) 734-7184,5352.222144542332,0vgCfrGeUmD4FcA9xaXvbA,False,Longnecks Bar & Grill,+12107347184,$$,4.0,2,[],3903 n st mary's st,-98.471875,29.463679,"['American (Traditional)', 'Burgers', 'Beer Bar']","['3903', 'n', 'st', ""mary's"", 'st']",3903,n st mary's st,Longnecks Bar & Grill,longnecks bar  grill,n mary's
273,(210) 680-5869,7156.294393940005,rTW_tgC2-oCtLgec8ptEew,False,Golden Corral Buffet & Grill,+12106805869,,2.5,3,"['pickup', 'delivery']",5071 n.w. loop 410,-98.5877,29.48775,"['American (Traditional)', 'Buffets']","['5071', 'n.w.', 'loop', '410']",5071,n.w. loop 410,Golden Corral Buffet & Grill,golden corral buffet  grill,n.w. loop 410
274,(210) 270-9530,8427.898420487121,m8hEW4Ac9z6E8KJs0jUFMw,False,Chicken Now,+12102709530,$,2.0,5,[],849 e commerce st,-98.4848034381866,29.4231610762292,"['Chicken Wings', 'Sandwiches', 'American (Traditional)']","['849', 'e', 'commerce', 'st']",849,e commerce st,Chicken Now,chicken now,e commerce
275,(210) 222-9181,8389.003270652856,il3DisjqDEYz8NmkqTcv5g,False,501 Lounge,+12102229181,,2.5,3,[],303 blum st,-98.482635,29.424234,['American (Traditional)'],"['303', 'blum', 'st']",303,blum st,501 Lounge,501 lounge,blum
276,,15450.266308833414,WGsyb8NQmkJrHKSK4pYAOw,False,Taqueria La Tapatia Bar And Grill,,,2.5,3,[],4731 rigsby ave,-98.3985971593,29.3988534217,"['American (Traditional)', 'Mexican']","['4731', 'rigsby', 'ave']",4731,rigsby ave,Taqueria La Tapatia Bar And Grill,taqueri l tapati bar and grill,rigsbye
277,(210) 225-4414,8046.809398605169,ciY62ugscq24P6xOgm2VSQ,False,The Arizona Cafe 2,+12102254414,,2.0,2,[],414 dolorosa ave,-98.4955061,29.4239902,"['Tex-Mex', 'American (Traditional)', 'Mexican']","['414', 'dolorosa', 'ave']",414,dolorosa ave,The Arizona Cafe 2, arizon cafe 2,dolorosae
278,(210) 222-0011,8636.615429907448,6XLZ7SFZckbkQwag6fOjkg,False,Nairobi Bar & Grill,+12102220011,,4.0,3,[],514 n hackberry,-98.47284,29.42561,"['Bars', 'American (Traditional)']","['514', 'n', 'hackberry']",514,n hackberry,Nairobi Bar & Grill,nairobi bar  grill,n hackberry
279,,8062.214961095111,KMxZEwhjf9lCao5GguPtUg,False,Ventanas Bistro,,$$,2.0,1,[],438-498 s frio st,-98.504307,29.422468,['American (Traditional)'],"['438-498', 's', 'frio', 'st']",438-498,s frio st,Ventanas Bistro,ventanas bistro,s frio
280,,10391.051858661669,5eVAfq3I_q7vvz3GxoTK9w,False,Buffalo Wild Wings,,,1.0,1,[],2714 war arrow,-98.6147846281528,29.4613252273015,"['Sports Bars', 'Chicken Wings', 'American (Traditional)']","['2714', 'war', 'arrow']",2714,war arrow,Buffalo Wild Wings,buffalo wild wings,war arrow
281,(210) 649-8245,14028.955157216407,i_M60K61J91fwMBRRY2yrQ,False,SA Phillies,+12106498245,,1.0,1,"['pickup', 'delivery']",7474 w military dr,-98.62931,29.41744,['American (Traditional)'],"['7474', 'w', 'military', 'dr']",7474,w military dr,SA Phillies,s phillies,w military
282,(210) 458-4206,14173.438675099249,5uhCDiyrmjwf1cmYWEsXZg,False,Steak ’n Shake,+12104584206,$,2.0,1,[],one utsa cir,-98.618124,29.584463,"['Burgers', 'Fast Food', 'American (Traditional)']","['one', 'utsa', 'cir']",one,utsa cir,Steak ’n Shake,steak ’n shake,utsa cir
283,(210) 984-4499,4345.588434410445,kthLZuVtn6WFRBQBAxo_bg,False,Al-Hijazyat,+12109844499,$,5.0,1,[],,-98.4833014011383,29.4662565265326,"['Food Stands', 'Arabian']",[],,,Al-Hijazyat,alhijazyat,
284,(210) 383-6415,7503.360051254395,ObsS48tp6s2VSdRtpLYo1w,False,Fat Tummy Empanadas,+12103836415,$,5.0,158,['delivery'],2922 w commerce st,-98.527976,29.4280016,"['Empanadas', 'Argentine']","['2922', 'w', 'commerce', 'st']",2922,w commerce st,Fat Tummy Empanadas,fat tummy empanadas,w commerce
285,(210) 230-8454,7892.970459827146,VnIuCqHc4fqN05Tvhq2ENQ,False,Dorrego's,+12102308454,$$,4.0,78,['delivery'],150 e houston st,-98.4917399,29.42623,"['Argentine', 'Bars', 'Latin American']","['150', 'e', 'houston', 'st']",150,e houston st,Dorrego's,dorregos,e houston
286,(210) 438-5259,1790.7111172086609,1y4-4TI7tdU-jY9lInxOxg,False,La Che Empanadas,+12104385259,,5.0,2,"['delivery', 'pickup']",6828 san pedro ave,-98.4987416,29.503012,"['Empanadas', 'Argentine', 'Hookah Bars']","['6828', 'san', 'pedro', 'ave']",6828,san pedro ave,La Che Empanadas,l che empanadas,san pedroe
287,(512) 387-1141,8744.859008416292,1X1imm2P6vacs3fXXj_xYg,False,El Gaucho Pancho,+15123871141,,5.0,2,['delivery'],1141 e commerce st,-98.4790594875812,29.4220653713763,"['Argentine', 'Empanadas']","['1141', 'e', 'commerce', 'st']",1141,e commerce st,El Gaucho Pancho, gaucho pancho,e commerce
288,(210) 277-0638,3231.7012196831665,8aUAFZSENBgdC17hPpKp5g,False,Wild Goji Restaurant & Bar,+12102770638,$$,4.5,835,['delivery'],7115 blanco rd,-98.50648,29.52242,"['Asian Fusion', 'Sushi Bars', 'Ramen']","['7115', 'blanco', 'rd']",7115,blanco rd,Wild Goji Restaurant & Bar,wild goji restaurant  bar,blanco
289,(210) 509-9999,10856.40038714995,zA74m8K0IYQMT4FfthcUGw,False,Sichuan House,+12105099999,$$,4.5,665,"['pickup', 'delivery']",3505 wurzbach rd,-98.6234,29.47179,"['Szechuan', 'Asian Fusion', 'Tapas/Small Plates']","['3505', 'wurzbach', 'rd']",3505,wurzbach rd,Sichuan House,sichu house,wurzbach
290,(210) 455-5574,8698.274672972188,waEEMz2qQaoDoomR2VFnrw,False,Gogi Street,+12104555574,$,4.5,557,['delivery'],12820 jones maltsberger rd,-98.461972,29.558001,"['Korean', 'Barbeque', 'Asian Fusion']","['12820', 'jones', 'maltsberger', 'rd']",12820,jones maltsberger rd,Gogi Street,gogi street,jones maltsberger
291,(210) 340-7808,3712.0887767510135,D4nebJywd4BEOV8g0t__tw,False,Sushihana Japanese Restaurant,+12103407808,$$,4.0,470,['delivery'],1810 nw military hwy,-98.5194099,29.52751,"['Japanese', 'Sushi Bars', 'Asian Fusion']","['1810', 'nw', 'military', 'hwy']",1810,nw military hwy,Sushihana Japanese Restaurant,sushihan japanese restaurant,nw military hwy
292,(210) 267-9717,5610.526316736753,Ps-zAgPdR2yu8gSXQBnH-A,False,Lucky Noodle,+12102679717,$,4.0,383,['delivery'],8525 blanco rd,-98.509676,29.544727,"['Asian Fusion', 'Noodles', 'Chinese']","['8525', 'blanco', 'rd']",8525,blanco rd,Lucky Noodle,lucky noodle,blanco
293,(210) 973-6988,2776.6881038142096,m3NXLgbw0U_ZjqyN6yB9Cw,False,Hula Poke - San Pedro,+12109736988,$$,4.5,203,['delivery'],7315 san pedro ave,-98.4993949,29.5158572,"['Poke', 'Asian Fusion']","['7315', 'san', 'pedro', 'ave']",7315,san pedro ave,Hula Poke - San Pedro,hul poke  s pedro,san pedroe
294,(210) 641-1234,9147.993145520599,woAkGSd5O2JcOyBPlmV8gA,False,Ichiban Steak & Asian Fusion,+12106411234,$$,4.5,171,['delivery'],8601 huebner rd,-98.6042908206582,29.5199093614691,"['Japanese', 'Asian Fusion', 'Steakhouses']","['8601', 'huebner', 'rd']",8601,huebner rd,Ichiban Steak & Asian Fusion,ichib steak  asi fusion,huebner
295,(210) 474-6699,7050.333641454732,S03dN81Ae5tQAjymZGFUPQ,False,L & L Hawaiian Grill,+12104746699,$,4.0,298,"['pickup', 'delivery']",1302 austin hwy,-98.441582,29.489544,"['Hawaiian', 'Asian Fusion', 'American (Traditional)']","['1302', 'austin', 'hwy']",1302,austin hwy,L & L Hawaiian Grill,l  l hawaii grill,austin hwy
296,(210) 368-9324,9280.067795771163,XPjRUJo4_xl6Ef0fofbefg,False,Hot Joy,+12103689324,$$,3.5,768,['delivery'],1014 s alamo st,-98.490830947402,29.4135441917695,['Asian Fusion'],"['1014', 's', 'alamo', 'st']",1014,s alamo st,Hot Joy,hot joy,s alamo
297,(210) 670-7684,6668.743435238012,XgvLoh76QrZCK2cH0gfxbw,False,Botika,+12106707684,$$,3.5,447,['delivery'],303 pearl pkwy,-98.479961,29.4425,"['Peruvian', 'Asian Fusion', 'Sushi Bars']","['303', 'pearl', 'pkwy']",303,pearl pkwy,Botika,botika,pearl pkwy
298,(210) 314-4423,11812.932081702083,orIMqgC9N0395tUU0B3NmA,False,Sapporo,+12103144423,$$,3.5,398,['delivery'],5638 hausman rd,-98.5974280536175,29.5724929869175,"['Sushi Bars', 'Asian Fusion', 'Ramen']","['5638', 'hausman', 'rd']",5638,hausman rd,Sapporo,sapporo,hausman
299,(210) 472-2900,8137.157164160428,oD4ZUh3XHx9x58c-lXtnOA,False,Sushi Zushi- Downtown,+12104722900,$$,3.5,411,"['pickup', 'delivery']",203 s st mary's st,-98.492,29.42369,"['Sushi Bars', 'Japanese', 'Asian Fusion']","['203', 's', 'st', ""mary's"", 'st']",203,s st mary's st,Sushi Zushi- Downtown,sushi zushi downtown,s mary's
300,(210) 562-3231,9588.714093188031,Lu3y5ztXoE2lT3TvFYS0tQ,False,Sukeban Sushi,+12105623231,$$,4.0,171,['delivery'],1420 s alamo st,-98.4957322,29.4097515,"['Japanese', 'Sushi Bars', 'Asian Fusion']","['1420', 's', 'alamo', 'st']",1420,s alamo st,Sukeban Sushi,sukeb sushi,s alamo
301,(210) 641-1288,10552.749217235196,33U5zNgRB7IdaEjD16tIGA,False,HuHot Mongolian Grill,+12106411288,$$,3.5,279,[],12710 ih 10 w,-98.591619,29.561466,"['Asian Fusion', 'Mongolian', 'Chinese']","['12710', 'ih', '10', 'w']",12710,ih 10 w,HuHot Mongolian Grill,huhot mongoli grill,ih 10
302,(210) 507-1000,3135.5027954422585,z8wLy5ivnewag5RiX-Ehhw,False,P.F. Chang's,+12105071000,$$,3.5,225,"['pickup', 'delivery']",255 e basse rd,-98.482014142189,29.4950132405562,"['Chinese', 'Asian Fusion', 'Gluten-Free']","['255', 'e', 'basse', 'rd']",255,e basse rd,P.F. Chang's,p.f. changs,e basse
303,(210) 558-2018,10304.432031560114,uS2vd3KWpcRQqwl_RWbqwA,False,Kogi Korean Grill,+12105582018,$$,3.5,179,['delivery'],12651 vance jackson rd,-98.58656,29.5629,"['Korean', 'Asian Fusion']","['12651', 'vance', 'jackson', 'rd']",12651,vance jackson rd,Kogi Korean Grill,kogi kore grill,vance jackson
304,(210) 233-1237,6312.143146626147,XCb4_sDFQi1aH67VJWjw0g,False,Dahlia Thai Cuisine,+12102331237,$$,3.5,165,"['pickup', 'delivery']",8498 fredericksburg rd,-98.5723704017283,29.5204670851201,"['Thai', 'Sushi Bars', 'Asian Fusion']","['8498', 'fredericksburg', 'rd']",8498,fredericksburg rd,Dahlia Thai Cuisine,dahli thai cuisine,fredericksburg
305,(210) 402-3411,10071.287394787367,-vEVTTRHj45qU9GgMclL8Q,False,Pacific Moon,+12104023411,$$,4.0,123,['delivery'],15140 san pedro ave,-98.4769538,29.5789478,"['Korean', 'Asian Fusion']","['15140', 'san', 'pedro', 'ave']",15140,san pedro ave,Pacific Moon,pacific moon,san pedroe
306,(210) 888-1500,9312.95517025155,0_nv1RRsIfuRJLW2BPXaXA,False,Frederick's Bistro,+12108881500,$$$,4.0,103,['delivery'],14439 nw military hwy,-98.54454,29.57333,"['French', 'Asian Fusion', 'Tapas/Small Plates']","['14439', 'nw', 'military', 'hwy']",14439,nw military hwy,Frederick's Bistro,fredericks bistro,nw military hwy
307,(210) 340-8888,2790.175555984446,lfzcJfFwg7BU1RxwpknoCw,False,Kai Sushi,+12103408888,$$,3.5,198,"['pickup', 'delivery']",2535 nw loop 410,-98.534011243151,29.512835281869,"['Japanese', 'Asian Fusion', 'Chinese']","['2535', 'nw', 'loop', '410']",2535,nw loop 410,Kai Sushi,kai sushi,nw loop 410
308,(210) 561-7688,6420.026373337412,oAUJKlGXWUV40cn1t9maIw,False,Asian Star Super Buffet,+12105617688,$$,3.5,139,['delivery'],9919 colonial sq,-98.5651,29.53168,"['Chinese', 'Japanese', 'Asian Fusion']","['9919', 'colonial', 'sq']",9919,colonial sq,Asian Star Super Buffet,asi star super buffet,colonialq
309,(210) 507-6500,14709.793755641562,dEqyr0TM2BN1CE7edPxe9w,False,P.F. Chang's,+12105076500,$$,3.5,215,"['pickup', 'delivery']",15900 lacantera pkwy,-98.615796,29.5930257031272,"['Chinese', 'Asian Fusion', 'Gluten-Free']","['15900', 'lacantera', 'pkwy']",15900,lacantera pkwy,P.F. Chang's,p.f. changs,lacantera pkwy
310,(210) 481-4884,9116.22242200778,Dz08SymMWgE4EegBVMyLMw,False,Bamboo,+12104814884,,3.5,156,"['pickup', 'delivery']",1010 s flores st,-98.499664,29.413465,"['Chinese', 'Asian Fusion']","['1010', 's', 'flores', 'st']",1010,s flores st,Bamboo,bamboo,s flores
311,(210) 281-4330,10246.929485587112,RBVDzd2fpMXmzuP5FP4KJQ,False,Tasty Thai,+12102814330,,4.0,36,"['pickup', 'delivery']",14516 brook hollow blvd,-98.475225,29.580055,"['Thai', 'Asian Fusion', 'Seafood']","['14516', 'brook', 'hollow', 'blvd']",14516,brook hollow blvd,Tasty Thai,tasty thai,brook hollow
312,(210) 561-5600,8382.548185409754,_S-gHJp3WWfP0fAtyqHm7g,False,Pei Wei,+12105615600,$,3.0,128,['delivery'],11267 huebner rd,-98.57677,29.5467634,"['Chinese', 'Asian Fusion', 'Gluten-Free']","['11267', 'huebner', 'rd']",11267,huebner rd,Pei Wei,pei wei,huebner
313,(210) 507-3600,4333.624217004787,H7yqQNy3J-FMbz-gJCIiAg,False,Pei Wei,+12105073600,$,3.0,75,['delivery'],999 e basse rd,-98.46972,29.49694,"['Chinese', 'Asian Fusion', 'Gluten-Free']","['999', 'e', 'basse', 'rd']",999,e basse rd,Pei Wei,pei wei,e basse
314,(210) 691-0880,8653.256730861538,ZzExFzT0hYDD9AgzKJD5PQ,False,Fire Wok,+12106910880,$,3.0,111,['delivery'],11075 interstate 10,-98.5811969,29.5466901,"['Asian Fusion', 'Japanese', 'Thai']","['11075', 'interstate', '10']",11075,interstate 10,Fire Wok,fire wok,interstate 10
315,(210) 314-1781,7889.397574683825,V_g15GYE7qnIvEWh-Wq6Wg,False,pho bo express,+12103141781,,3.5,25,['delivery'],124 broadway st,-98.487529483372,29.4274568204094,['Asian Fusion'],"['124', 'broadway', 'st']",124,broadway st,pho bo express,pho bo express,broadway
316,,8101.455496711922,-nozO4hlBck66NFKse_yXA,False,Blue Whale,,,4.0,13,[],136 main plz,-98.4930999102411,29.4239810641494,['Asian Fusion'],"['136', 'main', 'plz']",136,main plz,Blue Whale,blue whale,main plz
317,(808) 554-1471,29115.989574822954,cX31TWJDbeMqMK4SY84GnA,False,ChinChaRo Taco,+18085541471,,5.0,5,[],,-98.8142264,29.4733158,"['Asian Fusion', 'Korean', 'Food Trucks']",['nan'],nan,,ChinChaRo Taco,chincharo taco,
318,(210) 823-0106,2734.402935310587,zDwlbR9KnwpRJkQLhxjTnA,False,Ming's Thing,+12108230106,,4.5,2,[],5249 mccullough ave,-98.4923574074711,29.4790622772008,['Asian Fusion'],"['5249', 'mccullough', 'ave']",5249,mccullough ave,Ming's Thing,mings thing,mcculloughe
319,(210) 507-2045,5406.233405420434,5Grjr_ZP1mAIuzjKQZjJvQ,False,D'Island Cafe,+12105072045,,4.5,2,[],11319 west ave,-98.51286,29.543,"['Asian Fusion', 'Mexican']","['11319', 'west', 'ave']",11319,west ave,D'Island Cafe,disland cafe,weste
320,(210) 432-5252,9289.258820421897,z-v3tuY2PY5eFn84SvffBw,False,Quik Wok,+12104325252,,2.5,8,"['pickup', 'delivery']",567 w old hwy 90,-98.57185,29.42757,"['Chinese', 'Asian Fusion']","['567', 'w', 'old', 'hwy', '90']",567,w old hwy 90,Quik Wok,quik wok,w old hwy 90
321,(956) 241-1364,50469.472578615605,5_YSW-gQ-TDZsRTOwOhUUA,False,Miso American Food Truck,+19562411364,,3.5,8,[],,-98.72912,29.79505,"['Food Trucks', 'Asian Fusion', 'Latin American']",['nan'],nan,,Miso American Food Truck,miso americ food truck,
322,(210) 966-3690,8993.822634135327,i5E7u-wxT2PaB0Rk9blevw,False,Suni Blingoz,+12109663690,,5.0,2,[],5914 fermi,-98.6011599,29.46542,"['Food Trucks', 'Tex-Mex', 'Asian Fusion']","['5914', 'fermi']",5914,fermi,Suni Blingoz,suni blingoz,fermi
323,(210) 491-4425,15015.827357395849,WXUhnVrxSYiaQePA1Vj67g,False,The Roo Pub,+12104914425,$$,3.0,94,"['pickup', 'delivery']",19314 us hwy 281 n,-98.4626951505822,29.6217679756706,"['Pubs', 'American (Traditional)', 'Australian']","['19314', 'us', 'hwy', '281', 'n']",19314,us hwy 281 n,The Roo Pub, roo pub,us hwy 281
324,(210) 265-3763,4486.283457974526,NKyKURyCgz5zSIRQJjCgNQ,False,Sangria On the Burg,+12102653763,$$,4.5,976,"['delivery', 'restaurant_reservation']",5115 fredericksburg rd,-98.5597405,29.50168533,"['American (New)', 'Barbeque', 'Tacos']","['5115', 'fredericksburg', 'rd']",5115,fredericksburg rd,Sangria On the Burg,sangri   burg,fredericksburg
325,(210) 957-1430,5947.2654834028235,EjHu7cCILgbhyslPNQt3eA,False,The Smoke Shack,+12109571430,$$,4.0,1025,['delivery'],3714 broadway,-98.4664262831212,29.4610292610233,"['Southern', 'Barbeque', 'Sandwiches']","['3714', 'broadway']",3714,broadway,The Smoke Shack, smoke shack,broadway
326,(210) 654-8400,9561.838006265316,8MjlOFBianr5LHiOB-X0bQ,False,The Big Bib BBQ,+12106548400,$$,4.0,1025,['delivery'],104 lanark dr,-98.4160891441803,29.5029421705954,"['Barbeque', 'Sandwiches']","['104', 'lanark', 'dr']",104,lanark dr,The Big Bib BBQ, big bib bbq,lanark
327,(210) 455-5574,8698.274672972188,waEEMz2qQaoDoomR2VFnrw,False,Gogi Street,+12104555574,$,4.5,557,['delivery'],12820 jones maltsberger rd,-98.461972,29.558001,"['Korean', 'Barbeque', 'Asian Fusion']","['12820', 'jones', 'maltsberger', 'rd']",12820,jones maltsberger rd,Gogi Street,gogi street,jones maltsberger
328,(210) 444-9956,8408.810008773607,EkbMMFiq3x5OB8pTvVX0ag,False,225 Urban Smoke,+12104449956,$$,4.5,181,['delivery'],1015 rittiman rd,-98.4281596585388,29.4853234755559,"['Cajun/Creole', 'Barbeque', 'Food Trucks']","['1015', 'rittiman', 'rd']",1015,rittiman rd,225 Urban Smoke,225 urb smoke,rittiman
329,(210) 462-1496,8739.650082550725,UTpujGQ2hiC91XWCXSgOrg,False,Dignowity Meats On Houston Street,+12104621496,$$,4.0,339,"['delivery', 'pickup']",1701 e houston st,-98.47154,29.42527,"['Sandwiches', 'Delis', 'Barbeque']","['1701', 'e', 'houston', 'st']",1701,e houston st,Dignowity Meats On Houston Street,dignowity meats  houst street,e houston
330,(210) 314-3596,7435.581847861538,ndDWGPjul24IUSo5Phab_A,False,Augie's Alamo City BBQ Steakhouse,+12103143596,$$,4.0,521,['delivery'],909 broadway st,-98.4815826416016,29.4339714050293,"['Steakhouses', 'Barbeque']","['909', 'broadway', 'st']",909,broadway st,Augie's Alamo City BBQ Steakhouse,augies alamo city bbq steakhouse,broadway
331,(210) 267-9136,5983.776278821328,I2-CXOFGdJPbtsyuROn97g,False,The Pigpen,+12102679136,$$,4.0,253,['delivery'],106 pershing ave,-98.46595,29.46095,"['Bars', 'Southern', 'Barbeque']","['106', 'pershing', 'ave']",106,pershing ave,The Pigpen, pigpen,pershinge
332,(210) 496-0222,7074.761490655006,V6iCKYe2bKfKUqQE0ntIlQ,False,Two Bros. BBQ Market,+12104960222,$$,3.5,654,['delivery'],12656 west ave,-98.49752,29.55608,['Barbeque'],"['12656', 'west', 'ave']",12656,west ave,Two Bros. BBQ Market,two bros. bbq market,weste
