display_phone,distance,id,is_closed,name,phone,price,rating,review_count,transactions,address,longitude,latitude,categories
(210) 342-0011,4587.160656223971,9LCY2F98AV45IZA0Y4rXoQ,False,Azro,+12103420011,$$,4.5,217,[],2211 NW Military Hwy,-98.523454,29.534933,"['Afghan', 'Mediterranean', 'Halal']"
,17253.000401688427,9gY5_pRJhqkzMokhQM3fcQ,False,Laziz,,,5.0,1,[],Tinker Ave,-98.628273,29.3737793,"['Afghan', 'Food Stands', 'Greek']"
(210) 467-5102,6291.6985494178725,xoKRn7pXo6OZdDFrqma73g,False,African Village,+12104675102,,4.5,54,[],10918 Wurzbach Rd,-98.551459,29.540934,"['Ethiopian', 'African', 'Eritrean']"
(210) 474-6058,13820.55262400596,N2g3bqbQ_tXmwEr5XLOkXw,False,Kobams African Restaurant,+12104746058,$$,4.0,78,['pickup'],8753 Grissom Rd,-98.6563036353495,29.4805957233545,"['Caribbean', 'African', 'Seafood']"
(210) 224-8484,8220.553657627619,A-2-cH0dGVDY7tEs_0BTEA,False,Boudro's On the River Walk,+12102248484,$$$,4.0,2361,['delivery'],421 E Commerce St,-98.48839,29.42412,"['American (New)', 'Seafood']"
(210) 496-0828,8134.573517423651,_S3cq-DYrsSIpv3EI45ErA,False,The Magnolia Pancake Haus,+12104960828,$$,4.0,1889,[],606 Embassy Oaks,-98.488924,29.564154,"['Breakfast & Brunch', 'American (New)']"
(210) 314-3929,6722.3943580179575,CPpcFOhRHZwRxU6LbeJNrQ,False,Cured,+12103143929,$$,4.5,1016,['delivery'],306 Pearl Pkwy,-98.479888,29.44198,"['Cocktail Bars', 'American (New)']"
(210) 224-2900,8231.78293115204,IXF7ceaOgU5juDkMdQ2N6g,False,Zinc Bistro & Wine Bar,+12102242900,$$,4.0,1474,['delivery'],207 N Presa St,-98.48927,29.42365,"['Wine Bars', 'American (New)', 'Burgers']"
(210) 265-3763,4486.283457974526,NKyKURyCgz5zSIRQJjCgNQ,False,Sangria On the Burg,+12102653763,$$,4.5,974,"['restaurant_reservation', 'delivery']",5115 Fredericksburg Rd,-98.5597405,29.50168533,"['American (New)', 'Barbeque', 'Tacos']"
(210) 496-0828,8494.1163754653,ZlFxG9cdW4DkkygtwkkRPg,False,The Magnolia Pancake Haus,+12104960828,$$,4.0,1678,['delivery'],10333 Huebner Rd,-98.58484,29.54005,"['Breakfast & Brunch', 'American (New)']"
(210) 225-2547,9623.06633485972,pRp4lpOqcvDTWkCY1ShQDg,False,Bliss,+12102252547,$$$,4.5,553,['delivery'],926 S Presa St,-98.48703,29.41118,['American (New)']
(210) 236-8095,14449.813884542675,lHQUmNEMXFiHUfBWPZ7Odw,False,Whiskey Cake,+12102368095,$$,4.0,1379,[],15900 La Cantera Pkwy,-98.611468,29.593213,"['American (New)', 'Breakfast & Brunch']"
(210) 455-5701,6631.310328751167,mlrX_eT46F_WjEcNNDqg-g,False,Southerleigh Fine Food and Brewery,+12104555701,$$,4.0,1079,[],136 E Grayson St,-98.480661821962,29.4425389496087,"['Breweries', 'American (New)', 'Bars']"
(210) 225-0722,8137.157164160428,n1QMj77k8tWEeqSe8cnRTA,False,Biga On The Banks,+12102250722,$$$,4.5,726,['delivery'],203 S Saint Marys St,-98.492,29.42369,"['American (New)', 'Venues & Event Spaces', 'Desserts']"
(210) 320-0819,5492.3288132338575,y0G19V0kCxK3XDE4PuEjKw,False,Tycoon Flats,+12103200819,$$,4.0,797,['delivery'],2926 N Saint Marys St,-98.48491,29.45228,"['Burgers', 'American (New)']"
(210) 616-0954,2758.8237756116373,jpkIekRcJwkheofnq4tyvw,False,Picnikins Patio Cafe,+12106160954,$$,4.5,405,['delivery'],6901 Blanco Rd,-98.50789,29.51892,"['American (New)', 'American (Traditional)']"
(210) 828-9669,5501.003111445088,eglk84L_IwvD4KwPk0Rq3w,False,Cappy's Restaurant,+12108289669,$$,4.5,438,[],5011 Broadway St,-98.4633888,29.4726367,"['American (New)', 'Breakfast & Brunch', 'Bars']"
(210) 277-7047,9571.434425232646,oLdog5Vfrxo_E99A_zMypQ,False,Stella Public House,+12102777047,$$,4.0,665,"['delivery', 'pickup']",1414 S Alamo St,-98.495517,29.409946,"['Pizza', 'American (New)', 'Tapas/Small Plates']"
(210) 518-1063,8056.5565219330065,DCpLIlaGzsC8mG2077eANw,False,Las Canarias,+12105181063,$$,4.0,478,['delivery'],112 College St,-98.4899110856117,29.4251935550079,"['American (New)', 'Breakfast & Brunch', 'Buffets']"
(210) 277-8612,9516.873013977325,_8CAyUIaJkgUqHtZATy-lQ,False,The Bread Box,+12102778612,$$,4.5,289,"['delivery', 'pickup']",555 W Bitters Rd,-98.499714738381,29.5790660823088,"['Bakeries', 'Sandwiches', 'American (New)']"
(210) 448-8351,6583.825696088776,JS3gCbLH6Gkz_6lJR6AMQA,False,Supper,+12104488351,$$,4.0,445,['delivery'],132 E Grayson St,-98.4810031048935,29.4428615387664,"['American (New)', 'Breakfast & Brunch']"
(210) 248-9244,6611.926629847822,oVASyewXkfUUXb2k2nOaKw,False,Down on Grayson,+12102489244,$$,4.0,681,[],303 E Grayson St,-98.4782447700663,29.4439930070745,"['American (New)', 'Beer Bar', 'Wine Bars']"
(210) 300-4728,4563.272003575844,uw5b_6gdZ6hYsCz75lwBXg,False,Outlaw Kitchens,+12103004728,$$,5.0,115,[],2919 N Flores St,-98.5029868,29.4546217,"['American (New)', 'Cafes']"
(210) 444-9547,3477.473761457342,npasNPLckc0XHKnScB4wmQ,False,MAX's Wine Dive - San Antonio,+12104449547,$$,3.5,680,"['delivery', 'pickup']",340 E Basse Rd,-98.47849,29.49649,"['Wine Bars', 'American (New)', 'Breakfast & Brunch']"
(210) 558-6161,14422.525726116099,PsysXkAtN_X-jkmuSSt_kw,False,Perry's Steakhouse & Grille - La Cantera,+12105586161,$$$,4.0,464,['delivery'],15900 La Cantera Pkwy,-98.6110403886035,29.5932077735882,"['Steakhouses', 'Seafood', 'American (New)']"
(210) 354-4644,6556.269436574538,i8iLLTjW-_RzvXxlRVpsGg,False,Boiler House Texas Grill & Wine Garden,+12103544644,$$,3.5,719,"['delivery', 'pickup']",312 Pearl Pkwy,-98.480389,29.443453,"['American (New)', 'Breakfast & Brunch', 'Wine Bars']"
(210) 354-3844,8406.487040615479,q4cLyDHBsJJKC4TF4nytDw,False,Yard House,+12103543844,$$,4.0,539,"['delivery', 'pickup']",849 E Commerce St,-98.485064,29.423284,"['American (New)', 'Bars', 'Vegetarian']"
(210) 590-0515,9520.183191400758,s5NDZKT4dI9_KS5LK9UhTA,False,Jamaica Jamaica Cuisine,+12105900515,$$,4.0,319,['delivery'],2026 Austin Hwy,-98.4164711460471,29.502487344186,"['Caribbean', 'Bars', 'American (New)']"
(210) 973-6050,8861.22144709602,ymLDUAQv7WqSp0WacIlGpQ,False,Maverick Texas Brasserie,+12109736050,$$,4.0,326,['delivery'],710 S St Mary's St,-98.490007,29.417631,"['Comfort Food', 'American (New)', 'Brasseries']"
(210) 236-5134,11735.850300540777,10lsN6Ciaf0b6z9Ha0-_Iw,False,Picnikins Patio Cafe,+12102365134,$$,4.5,197,['delivery'],5811 University Heights Blvd,-98.597038,29.5717050510903,"['American (New)', 'American (Traditional)']"
(210) 532-2551,9724.988886321617,T3oCtbanG90JrCnVS6eLbg,False,Bite,+12105322551,$$,4.0,220,"['restaurant_reservation', 'delivery']",1012 S Presa St,-98.4868185165329,29.4103426122861,"['French', 'American (New)', 'Wine Bars']"
(210) 223-3101,8897.561920585187,4XwckdO-Ep8hnUyBD4RYWw,False,Chart House,+12102233101,$$$,3.5,904,['delivery'],739 E César E Chávez Blvd,-98.4844153,29.417013,"['Seafood', 'Steakhouses', 'American (New)']"
(210) 824-0275,3119.1998521160494,0oh-tWbIP7Suh4vYQEMbIw,False,J. Alexander's Restaurant,+12108240275,$$,4.0,320,[],255 East Basse Rd,-98.4821761714426,29.4945472623267,"['American (New)', 'Seafood', 'Steakhouses']"
(210) 802-1860,7629.17602552272,3nzrromr2ZfRwCjG4MSdCw,False,Pharm Table,+12108021860,$$,4.0,182,['delivery'],106 Auditorium Cir,-98.488109,29.42976,"['American (New)', 'Vegetarian', 'Cafes']"
(210) 396-5817,8098.00689412776,G1TA_O4ImM47WJhVCrGBWg,False,Ostra,+12103965817,$$$,3.5,389,['delivery'],212 W Crockett St,-98.49056,29.42465,"['American (New)', 'Seafood', 'Breakfast & Brunch']"
(210) 352-3171,7862.022476607248,NAOHfkb9C6c834DH5Xu3kA,False,Rebelle,+12103523171,$$$,4.0,249,[],300 E Travis St,-98.48957,29.42729,"['Seafood', 'American (New)', 'Steakhouses']"
(210) 556-8624,9322.274880656645,xSrHK8MdVm0IihVNfHM9vA,False,Benjies Munch,+12105568624,$$,4.5,116,['delivery'],1218 W Bitters Rd,-98.51214,29.5782,"['Food Trucks', 'Sandwiches', 'American (New)']"
(210) 354-3001,7717.221638210823,jeJU6D_Dan4hUT6Zvsqy9Q,False,Burleson Yard Beer Garden,+12103543001,$,4.0,156,[],430 Austin St,-98.4783956408501,29.4325205189164,"['American (New)', 'Beer Gardens', 'Cocktail Bars']"
(210) 691-0033,14371.198829217921,X5y2lCbuF0THwrM5C83OKw,False,Yard House,+12106910033,$$,3.5,489,"['delivery', 'pickup']",15900 La Cantera Pkwy,-98.610752,29.592815,"['American (New)', 'Bars', 'Vegetarian']"
(210) 224-1976,8453.839373493045,BE13CTKdTAatznUAmVDuBg,False,Fig Tree Restaurant,+12102241976,$$$,4.0,183,['delivery'],515 Villita St,-98.488253,29.421901,"['American (New)', 'French']"
(210) 202-2694,13553.12599461676,thoppZoZ0yzdlz-8RexoFg,False,Topgolf,+12102022694,$$,3.5,365,[],5539 N Loop 1604 W,-98.594985,29.594147,"['American (New)', 'Golf', 'Sports Bars']"
(210) 824-8686,6478.117811219411,jXeeiKvlk7JP_vJSbRyknw,False,SILO Alamo Heights,+12108248686,$$$,4.0,244,['delivery'],1133 Austin Hwy,-98.44808,29.48757,"['American (New)', 'Lounges']"
(210) 821-3738,3373.3810366261146,rYnFtYX8U2Sm5aHlAhDb9g,False,Canyon Cafe,+12108213738,$$,3.5,302,['delivery'],255 E Basse Rd,-98.4796751405624,29.4970145459832,['American (New)']
(210) 731-8534,3360.225568664964,6v-cmn8zqBiPKIX35mP63g,False,Charcoal Grill Organic Restaurant,+12107318534,$$,4.5,112,[],110 N Crossroads Blvd,-98.549023,29.492151,"['American (New)', 'Gluten-Free']"
(210) 858-4052,5558.188578919147,gCtxmu4-s2FPmVt8AJXxxQ,False,BurgerFi,+12108584052,$$,4.0,148,"['delivery', 'pickup']",1907 Nacogdoches Rd,-98.4586191773087,29.506322701852,"['Hot Dogs', 'American (New)', 'Burgers']"
(210) 737-2411,5410.3221538117905,BiNmstOGccF4-8Isfvgpuw,False,Bombay Bicycle Club,+12107372411,$$,4.0,167,['delivery'],3506 N Saint Marys St,-98.478578,29.457093,"['American (New)', 'Sports Bars', 'Burgers']"
(210) 877-5355,14670.94160006607,9IvCOANZzgnbEHrPpw5vQQ,False,Kona Grill,+12108775355,$$,3.5,534,"['delivery', 'pickup']",15900 La Cantera Pkwy,-98.614506,29.593554,"['Sushi Bars', 'American (New)']"
(210) 828-6860,5517.1481324245115,RfP3zhPpXZR83yHtjvwonA,False,Cappyccino's,+12108286860,$$,4.0,102,['delivery'],5003 Broadway St,-98.463308,29.472451,['American (New)']
(210) 433-9960,8818.552053566103,cXChKPJAQaRWTpNpk6wNpQ,False,Chunky's Burgers,+12104339960,$$,3.5,241,"['delivery', 'pickup']",4602 Callaghan Rd,-98.6020614576721,29.4728246965723,"['Burgers', 'American (New)']"
(210) 828-3508,4579.81695716371,E5tdvAio8CPvFsFAzsj0Bw,False,Stone Werks Big Rock Grille - Lincoln Heights,+12108283508,$$,3.5,297,[],999 E Basse Rd,-98.4672100317383,29.4974449232158,"['American (New)', 'Breakfast & Brunch', 'Cocktail Bars']"
(210) 520-0706,9519.432890487078,B_-sdSVBpWsgKhF8T1wilQ,False,Leon Valley Cafe,+12105200706,$$,4.5,329,[],6417 Evers Rd,-98.61236,29.50152,"['American (New)', 'Cafes']"
(210) 503-5121,4353.184906199618,5Oj72C1PsKWHYM25XiQgWw,False,Clementine San Antonio,+12105035121,$$$,4.5,120,[],2195 NW Military Hwy,-98.5221405,29.5324243,"['Southern', 'American (New)']"
(210) 236-5437,10663.11535145296,VJpFnNjUiWx7tddvuB5K8g,False,Twin Peaks,+12102365437,$$,3.5,237,"['delivery', 'pickup']",12790 W Interstate 10,-98.591961,29.562571,"['American (New)', 'Sports Bars']"
(210) 224-3343,8404.647364166347,gHiyjLK8ugcxPeM3J8KvJw,False,Durty Nelly's Irish Pub,+12102243343,$$,3.5,263,[],200 S Alamo St,-98.4877823521925,29.4224955442625,"['Pubs', 'American (New)', 'Irish Pub']"
(210) 824-8686,6478.117811219411,2XqrAAya6djfuus3W9y_ug,False,Nosh,+12108248686,$$,3.5,122,['delivery'],1133 Austin Hwy,-98.44808,29.48757,['American (New)']
(210) 822-7272,8335.0609764391,EJuG-HM4iINp8pPg2ZiMvQ,False,Longhorn Cafe,+12108227272,$,4.0,101,['delivery'],1003 Rittiman Rd,-98.4288549375732,29.4858512867362,['American (New)']
(210) 998-7601,3294.4299275900944,KZ11iOFNohT5JWULdUBZ3Q,False,Kona Grill,+12109987601,$$,3.5,208,[],7400 San Pedro Ave,-98.495302,29.518962,"['Sushi Bars', 'American (New)']"
(210) 233-1199,10951.119633152519,IUO84Sl_4U7RV7Imz9jXyA,False,Native Grill & Wings,+12102331199,$$,3.5,188,"['delivery', 'pickup']",3238 Wurzbach Rd,-98.6234731,29.4676421,"['American (New)', 'Sports Bars', 'Chicken Wings']"
(210) 447-7102,3000.2587072229107,lcLRd7I5iJdIqvAbIdktlQ,False,Twin Peaks,+12104477102,$$,3.0,230,['delivery'],702 NW Loop 410,-98.503753,29.519778,"['American (New)', 'Sports Bars']"
(726) 900-7500,14414.111624704727,TM2ehhLvzDKAGc9rVxPR1A,False,Bar Louie,+17269007500,$$,3.5,281,['delivery'],15900 La Cantera Pkwy,-98.6109611262589,29.5931670801876,"['Bars', 'American (New)', 'Gastropubs']"
(210) 424-2014,3206.180052898768,-3VigdTJEhNZSsd2SXR7Uw,False,California Pizza Kitchen at Alamo Quarry Market,+12104242014,$$,3.5,105,['delivery'],255 E Basse Rd,-98.48149,29.497705,"['Pizza', 'American (New)', 'Salad']"
(210) 224-7625,8076.172200947882,r2fYmxLsjGPIehjX4bqY9Q,False,Hard Rock Cafe,+12102247625,$$,3.0,362,"['delivery', 'pickup']",111 W Crockett St,-98.48909,29.42524,"['American (New)', 'Burgers', 'Music Venues']"
(210) 554-1721,7874.911390759732,HocbcLmnvHvc642fvUET8A,False,Market on Houston,+12105541721,$$,3.0,214,['pickup'],205 E Houston St,-98.4910097799047,29.4266100081512,"['American (New)', 'Pizza', 'Breakfast & Brunch']"
(210) 569-4453,6722.459927749111,9wB-gDK4KCduywgN23BflA,False,Crepelandia,+12105694453,$,4.0,42,[],306 Pearl Pkwy,-98.4799336,29.4419566,"['American (New)', 'Creperies']"
(210) 699-4275,8923.411563831985,ODE2zOpEppIxhuUDS0IKDA,False,California Pizza Kitchen at San Antonio,+12106994275,$$,3.5,110,"['delivery', 'pickup']",11745 Ih 10 W Phase 418,-98.581744,29.54927,"['Pizza', 'American (New)', 'Salad']"
(210) 298-8040,8254.458042798598,vR7zr2Lq--B1g-wl8uSAvQ,False,Las Ramblas,+12102988040,$$$,3.5,137,['restaurant_reservation'],306 W Market St,-98.489783,29.423367,"['American (New)', 'Breakfast & Brunch', 'Cocktail Bars']"
(210) 270-0786,8389.502027766841,WVci8VJE2GnURs5sMEmFDQ,False,The River's Edge Cafe + Patio Bar,+12102700786,$$,3.0,171,['delivery'],200 S Alamo St,-98.4877999,29.42234,"['Breakfast & Brunch', 'American (New)', 'Sandwiches']"
(210) 490-6666,8434.612089716693,I04iCC6w_WcP3g0PCVY56g,False,EZ's Brick Oven and Grill,+12104906666,$,3.0,121,"['delivery', 'pickup']",734 Bitters Rd,-98.4835817119437,29.5653935348117,"['Burgers', 'Pizza', 'American (New)']"
(210) 877-9099,11829.904524576688,LrvuxEiZL5mn6GjlQQ02SA,False,The Well Restaurant.    Drink + Dine + Dance,+12108779099,$$,2.5,225,"['delivery', 'pickup']",5539 Utsa Blvd,-98.5924062877893,29.5763703824102,"['Bars', 'Music Venues', 'American (New)']"
(210) 496-9400,8464.987510476953,T5p7wY4Zn6sBcWTS_nh3DQ,False,Wing Daddy's Sauce House,+12104969400,$$,2.5,147,['delivery'],903 E Bitters Rd,-98.4788363907882,29.563991434561,['American (New)']
(210) 321-4860,3763.635643716246,FiDlrMGtZ1Lm8E0h90zM2w,False,Cascabel Restaurant,+12103214860,$$,3.5,16,['delivery'],37 NE Loop 410,-98.49087,29.52147,"['American (New)', 'Breakfast & Brunch']"
(210) 495-3447,11951.484544866362,57C7zHSto7HlSJR4XHO16Q,False,First Watch - Thousand Oaks,+12104953447,,4.0,16,[],16668 San Pedro Ave,-98.4713694,29.5951894,"['Cafes', 'Breakfast & Brunch', 'American (New)']"
(214) 282-3932,8327.147344686033,T5EIOlmzWAxnHXmBFd8T9Q,False,Gourmet On the Fly,+12142823932,$,4.0,7,[],,-98.5858154296875,29.4526869212149,"['Food Trucks', 'American (New)', 'Burgers']"
,8710.955676097867,OsXbDpR8pkp4yCcDEG3bIw,False,The Magpie,,,5.0,4,[],1602 E Houston St,-98.47308,29.42489,"['Korean', 'Wine Bars', 'American (New)']"
(210) 486-2328,10636.783285610241,UPwGd1u52mEpJbEeduAaHQ,False,Artemisia's At SPC,+12104862328,,5.0,3,[],1801 Martin Luther King Dr,-98.45452,29.41401,"['Cafeteria', 'American (New)']"
(210) 473-6377,11363.038520324568,iJxbQ9KAGFBabTJ_aNyCtQ,False,Chi Chi Birds Hot Chicken,+12104736377,,4.5,4,[],6422 Babcock Rd,-98.6156,29.54626,"['American (New)', 'Pop-Up Restaurants', 'Chicken Shop']"
,8073.416704308992,UYS35udDfDUvZTkfA3eXZQ,False,Blazin' Burgers Food Truck,,$,3.5,8,[],,,,"['Street Vendors', 'American (New)', 'Food Trucks']"
(210) 734-7184,5323.92218791589,WodoCjlSPnDx552pWJCUDQ,False,Zootennial Restaurant,+12107347184,$$,3.5,6,[],3903 N St Mary's St,-98.4736340492963,29.4623022611927,"['Pizza', 'American (New)', 'Burgers']"
,6207.127139645585,r2lEgHINqEBwATcRrpgmDQ,False,Cilantro,,$$,4.0,4,[],1111 NE Loop 410,-98.455688,29.517038,['American (New)']
(210) 377-3900,3458.271024318643,-fh9rAYxKJkpPVS0fLx5Vg,False,Asado Urban Grill,+12103773900,$$$,3.0,7,[],3233 NW Loop 410,-98.5475234985352,29.5061302185059,"['American (New)', 'Breakfast & Brunch', 'Bars']"
(210) 223-3923,7973.463310788911,pov8efOwv9HcO54z7LZ7aQ,False,Judy's Food To Go,+12102233923,$,3.5,3,[],108 Soledad St,-98.492729,29.425258,['American (New)']
(210) 525-9999,4987.9304736997365,yd7kkgeUZbbQot0uA4n6jQ,False,E’Terie Bar & Grill,+12105259999,,4.0,2,[],10110 US Hwy 281 N,-98.4836581,29.5304421214427,"['Cocktail Bars', 'American (New)']"
(210) 800-1525,8073.416704308992,9QL55WA1sMGY0j1CpS2dug,False,MARS' Mobile Kitchen,+12108001525,$$,3.5,11,[],,,,"['Street Vendors', 'American (New)', 'Food Trucks']"
,14620.009051366016,4hShoGEhuabnbkLd2iH0dg,False,Coco & Lolly,,,2.5,3,[],15900 La Cantera Pkwy,-98.615711,29.592006,"['American (New)', 'Mexican']"
(210) 444-5389,10586.28244805153,8h6SIfTthw4c05VJEtZVkA,False,Terrace Club Restaurant,+12104445389,,2.5,2,[],One AT & T Center Pkwy,-98.437675,29.42661,['American (New)']
(210) 509-7611,8663.055218889,nbIygUwGLpUPZgsqB3rWaQ,False,Taqueria Jalisco,+12105097611,,3.0,1,['delivery'],6003 Bandera Rd,-98.603513,29.4841895,['American (New)']
(210) 930-2866,5186.6036551959505,CEdmpooC1WdSkoKATUkL5Q,False,Alamo City Microbrewery & Grill,+12109302866,$$,1.5,4,[],9800 Airport Blvd,-98.4719849,29.5262299,['American (New)']
(210) 349-3373,1216.5999133945647,B5uuM5QnJU7MhtvFCHCtLA,False,Los Cocos Bakery,+12103493373,,4.0,1,[],3309 W Ave,-98.526123,29.4915066,"['Bakeries', 'American (New)', 'Mexican']"
(210) 332-1900,14669.64737557376,5YxLUaIppqXW8Gtar0NwVg,False,Bazille,+12103321900,,3.0,2,[],15900 La Cantera Pkwy,-98.615105,29.594201,"['American (New)', 'Cocktail Bars']"
,14329.11001326207,k0Xvn7dU9GaNRfzvsDF8Ug,False,Biker Jim's,,,5.0,1,[],Utsa 1604 Campus,-98.6184692382812,29.5861396789551,['American (New)']
(210) 263-3340,12576.26475028125,B4KOaAWFIo5QCiORA3VbWA,False,J's Chicken And Waffles,+12102633340,,2.0,1,[],12521 Nacogdoches Rd,-98.40385,29.553917,"['Soul Food', 'American (New)']"
(210) 222-2521,8054.697723522756,AsL7ifh6n0r9eGkhij6-Ng,False,The Esquire Tavern,+12102222521,$$,4.0,2509,"['pickup', 'restaurant_reservation']",155 E Commerce St,-98.4917683754631,29.4247334154792,"['Lounges', 'Burgers', 'American (Traditional)']"
(210) 314-7760,3323.168289795035,imR_DEGlWMVoFMhTa9pjxQ,False,Sabor Cocinabar,+12103147760,$$,4.5,374,['delivery'],4331 McCullough Ave,-98.492007,29.4717878,"['Mexican', 'Breakfast & Brunch', 'American (Traditional)']"
(210) 483-7600,8340.907859570825,PLIGLhyC9PwmSt9m8a6Yvg,False,Max & Louie's New York Diner,+12104837600,$$,4.0,907,['delivery'],226 W Bitters Rd,-98.486054,29.565278,"['Diners', 'Breakfast & Brunch', 'American (Traditional)']"
(210) 616-0954,2758.8237756116373,jpkIekRcJwkheofnq4tyvw,False,Picnikins Patio Cafe,+12106160954,$$,4.5,405,['delivery'],6901 Blanco Rd,-98.50789,29.51892,"['American (New)', 'American (Traditional)']"
(210) 562-3075,6307.384930460427,uitnSU8Wv8LRT50y2w-Pmg,False,Embers Wood Fire Grill & Bar,+12105623075,$$,4.0,633,"['delivery', 'pickup', 'restaurant_reservation']",9818 I-10 W,-98.5638796538115,29.5313678598065,"['American (Traditional)', 'Bars']"
(210) 370-3779,10897.562876375305,7jHc6y8AJA-kTQcZ98iG-w,False,Courtyard Cafe,+12103703779,$,4.5,498,['pickup'],7600 Eckhert Rd,-98.6256989546503,29.5093437868539,"['Cafes', 'American (Traditional)', 'Sandwiches']"
(210) 696-5080,8520.762733417794,aMXaX_6fHJoBJahBhOzFAg,False,Flying Saucer Draught Emporium,+12106965080,$$,4.0,598,['delivery'],11255 Huebner Rd,-98.5773702051393,29.5480101806576,"['Bars', 'American (Traditional)']"
(210) 233-1249,6996.407916178756,R7uAhHQL3IXxlATny8KOnQ,False,Green Vegetarian Cuisine,+12102331249,$$,4.5,434,['delivery'],10003 NW Military Hwy,-98.5363480230089,29.5543913840854,['American (Traditional)']
(210) 437-4263,5402.27878035177,qAUBsHNG1xIxPEGalV2Brg,False,Cullum's Attagirl,+12104374263,$,4.0,388,['delivery'],726 E Mistletoe,-98.485025,29.453132,"['American (Traditional)', 'Beer Bar']"
(210) 227-1187,9368.944081287129,CpZsZpaVeURirfk8h6Oorw,False,Liberty Bar,+12102271187,$$,4.0,686,['delivery'],1111 S Alamo St,-98.492389,29.412391,"['American (Traditional)', 'Breakfast & Brunch', 'Salad']"
(210) 212-5727,9801.3796453895,wVVFSBnS8PXTZSXDtHZWPA,False,La Tuna Grill,+12102125727,$$,4.5,297,['delivery'],100 Probandt St,-98.4960195883273,29.4077582365361,"['American (Traditional)', 'Seafood', 'Sandwiches']"
(210) 492-9464,12619.641031093282,lNTg24zSpDxVJBJY92Hn7g,False,Anchor Bar,+12104929464,$$,4.5,412,"['delivery', 'pickup']",4553 N Loop 1604 W,-98.5710993014624,29.5966515787771,"['Chicken Wings', 'Bars', 'American (Traditional)']"
(210) 222-1849,7657.294011292648,NpB9QM71dOUKekVLjEwckw,False,Restaurant Gwendolyn,+12102221849,$$$$,4.5,248,['delivery'],152 E Pecan St,-98.49154,29.42854,"['American (Traditional)', 'Modern European', 'Caterers']"
(210) 227-1521,7616.1606918750595,AMNb9E9NCwzmP6Cel0i9iA,False,Chas Market & Kitchen,+12102271521,$$,4.0,282,"['delivery', 'pickup']",1431 N Pine St,-98.470536,29.437582,"['Korean', 'American (Traditional)', 'Mexican']"
(210) 224-6169,6555.463420204735,PZRiLW58f_OTo9iY46VojQ,False,Josephine Street,+12102246169,$$,4.0,433,['delivery'],400 E Josephine St,-98.4782019,29.4446161,"['Steakhouses', 'American (Traditional)', 'Chicken Wings']"
(210) 474-6699,7050.333641454732,S03dN81Ae5tQAjymZGFUPQ,False,L & L Hawaiian Grill,+12104746699,$,4.0,298,"['delivery', 'pickup']",1302 Austin Hwy,-98.441582,29.489544,"['Hawaiian', 'Asian Fusion', 'American (Traditional)']"
(210) 224-2337,9182.912645251996,-azLu4PCWhMW-rGu3RCzyQ,False,The Friendly Spot Ice House,+12102242337,$,4.0,494,[],943 S Alamo St,-98.490599,29.414498,"['Bars', 'American (Traditional)']"
(210) 224-9835,8036.809899683128,Ri8ny-KWMtWl5yokiKE56w,False,Iron Cactus,+12102249835,$$,3.5,1127,['delivery'],200 River Walk,-98.491085,29.425072,"['Mexican', 'Bars', 'American (Traditional)']"
(210) 476-5010,6772.842370679697,u_0WZ-WvK9cWAks6dXdaGA,False,Earth Burger,+12104765010,$,4.5,95,['delivery'],2501 Nacogdoches Rd,-98.4501488,29.518579,"['Vegan', 'American (Traditional)']"
(210) 299-8110,9307.629338832412,iTm3wK_HmnnjcSd4fuN0vw,False,Mark's Outing,+12102998110,$,4.5,179,"['delivery', 'pickup']",1624 E Commerce St,-98.4708068,29.4198356,"['Burgers', 'Hot Dogs', 'American (Traditional)']"
(210) 222-9092,8133.248041730323,34P8wyqZyO-PsyJ3jGBrEg,False,Saltgrass Steak House,+12102229092,$$,3.5,744,"['delivery', 'pickup']",502 Riverwalk,-98.4886845,29.4248067,"['Steakhouses', 'Seafood', 'American (Traditional)']"
(210) 481-8776,6857.986873856169,i6UX_C4YDX6816PQGzY5Rw,False,Grayze,+12104818776,$$,3.5,381,"['delivery', 'pickup']",521 E Grayson St,-98.47463,29.44345,"['American (Traditional)', 'Venues & Event Spaces', 'Bars']"
(210) 277-4770,2934.736502825122,5vYRfkwwa_93TPFdYzPevg,False,Shake Shack,+12102774770,$$,3.5,332,['delivery'],7427 San Pedro Ave,-98.4998115746294,29.5175745238617,"['American (Traditional)', 'Burgers', 'Fast Food']"
(210) 691-3447,6911.0573813013925,XqLcng650eC27U897RXiBg,False,First Watch,+12106913447,$$,4.0,275,[],9985 I-10,-98.56673,29.53669,"['Breakfast & Brunch', 'Cafes', 'American (Traditional)']"
(210) 558-5300,11365.509687853708,rlF5xzZW29fKv9CtFMjKag,False,Checo's Mexican & American Grill,+12105585300,$,4.0,187,"['delivery', 'pickup']",5999 De Zavala Rd,-98.6009893,29.5635149,"['Mexican', 'American (Traditional)', 'Breakfast & Brunch']"
(210) 647-7720,11137.12687827118,rwIcwyBXR14Zt6qQYroMWw,False,Pancake Joes,+12106477720,$,4.0,317,['delivery'],6703 Ingram Rd,-98.6243926361203,29.465043355164,"['American (Traditional)', 'Breakfast & Brunch']"
(210) 366-9000,2769.368956363005,NPrt8Ns2TTNBVwrUAnKLSg,False,First Watch,+12103669000,$$,4.0,184,[],830 NW Loop 410,-98.506318,29.5183289,"['Breakfast & Brunch', 'Cafes', 'American (Traditional)']"
(210) 496-7092,7912.371654245717,YFfOQF8sryMqXIMCVJaD-g,False,Charlie Brown's Neighborhood Bar & Grill,+12104967092,$,4.0,154,['delivery'],11888 Starcrest Dr,-98.46113,29.54819,"['Dive Bars', 'Sports Bars', 'American (Traditional)']"
(210) 994-9838,3757.7922181242384,RoyklFAqrt_D4IyGnBMNFw,False,Mr Juicy,+12109949838,,4.5,101,"['delivery', 'pickup']",3910 McCullough Ave,-98.491614,29.46708,['American (Traditional)']
(210) 521-2988,10835.65842281153,KMofP8OxOCvqC_PIGP1J9Q,False,Texas Roadhouse,+12105212988,$$,4.0,200,[],2893 Cinema Ridge,-98.6204541389488,29.4632458085977,"['Steakhouses', 'Barbeque', 'American (Traditional)']"
(210) 229-1010,8020.887423194556,c9jnVuBALVqag9wbPmmNbw,False,Landry's Seafood House,+12102291010,$$,3.0,707,[],517 N Presa,-98.4888319256106,29.4258271017459,"['Seafood', 'Steakhouses', 'American (Traditional)']"
(210) 798-2222,3265.934909712261,YD165pqaakFZe-zSiEqMjQ,False,The Cheesecake Factory,+12107982222,$$,3.5,389,[],7400 San Pedro,-98.4956250335706,29.5188424168627,"['Desserts', 'American (Traditional)']"
(210) 822-2265,5441.493165036793,JdyJ1jRuMV49tT3KNRlFYQ,False,Twin Sisters Bakery & Cafe,+12108222265,$$,3.5,245,['pickup'],6322 N New Braunfels Ave,-98.4587331962834,29.4876107547137,['American (Traditional)']
(210) 490-9220,10883.54174118126,FaSwdda4SlNzPDgUuM_zfw,False,Willie's Grill & Icehouse,+12104909220,$$,4.0,254,"['delivery', 'pickup']",15801 San Pedro Ave,-98.4758758544922,29.5863227844238,"['Burgers', 'American (Traditional)', 'Seafood']"
(210) 641-6447,9036.132693232792,zD9VdTS3WmOEbHaAl8V56A,False,Saltgrass Steak House,+12106416447,$$,3.5,278,"['delivery', 'pickup']",11745 I-10 W,-98.583502,29.5491066,"['Steakhouses', 'Seafood', 'American (Traditional)']"
(210) 828-1470,5691.733189694383,Y976IAZCMQHmiTTedtEBeg,False,Magic Time Machine,+12108281470,$$,3.5,367,['delivery'],902 NE Loop 410,-98.4609447065397,29.5157783443815,"['American (Traditional)', 'Bars', 'Steakhouses']"
(210) 212-5506,9612.139496358206,SZPMn8vSlb2WurCULgK2Sg,False,Blue Star Brewing,+12102125506,$$,3.0,432,[],1414 S Alamo St,-98.4953643044747,29.4095989705174,"['Breweries', 'American (Traditional)', 'Venues & Event Spaces']"
(210) 290-8066,3391.8446249014573,y-5I6U_tX0Q2ouI_hinEHA,False,Quarry Hofbrau & Beer Garden,+12102908066,$$,3.0,343,[],7310 Jones Maltsberger Rd,-98.4795419943039,29.4975567690645,"['German', 'American (Traditional)', 'Beer Gardens']"
(210) 732-0191,3149.3761066161687,yIWpXEq_ofPIA4AL4Fytlw,False,Tip Top Cafe,+12107320191,$$,3.0,362,"['delivery', 'pickup']",2814 Fredericksburg Rd,-98.5312299,29.47013,"['American (Traditional)', 'Seafood', 'Sandwiches']"
(210) 444-9424,6869.328578193729,TDHuagWKUiZyui4y2_lvNA,False,Earl Abel's,+12104449424,$$,3.5,328,"['delivery', 'pickup']",1639 Broadway St,-98.4776541064646,29.4415921449536,"['Diners', 'American (Traditional)', 'Burgers']"
(210) 455-6644,8709.406297962603,Ab6TzOWuAxC7QOZAm8qfBw,False,Walk-On's Sports Bistreaux,+12104556644,$$,3.5,179,"['delivery', 'pickup']",11075 IH 10 W,-98.581156,29.546983,"['American (Traditional)', 'Sports Bars']"
(210) 402-6621,12011.335685887485,_th9Kt1eA-zuJA3CWhxApQ,False,Saltgrass Steak House,+12104026621,$$,3.5,196,['delivery'],16910 US 281 N,-98.4713176047546,29.5957467962701,"['Steakhouses', 'Seafood', 'American (Traditional)']"
(210) 348-5724,3008.600863549449,GuEG-COoRmNBeE-qvWfciw,False,LongHorn Steakhouse,+12103485724,$$,3.5,175,['delivery'],7439 San Pedro Ave,-98.4999320224661,29.5183849764953,"['Steakhouses', 'American (Traditional)', 'Barbeque']"
(210) 224-0026,8169.188688277794,OCpjEJOSo--ciS1OGlDwKg,False,Dick's Last Resort,+12102240026,$$,3.0,562,"['delivery', 'pickup']",223 Losoya St,-98.4880772,29.4246387,"['Bars', 'American (Traditional)', 'Seafood']"
(210) 592-7249,5446.83633348544,Moc_khGkJiyTGoikTm1J8g,False,Raising Cane's Chicken Fingers,+12105927249,$,4.0,99,[],9800 Airport Blvd,-98.4718245640397,29.5264753211854,"['Fast Food', 'American (Traditional)', 'Chicken Wings']"
(210) 375-6106,6479.493115960667,TtmqkXT7s93IJbhQgp_M3g,False,Rookies Too Bar & Grill,+12103756106,$$,4.5,44,['delivery'],9200 Broadway St,-98.456733,29.523841,"['Sports Bars', 'American (Traditional)']"
(210) 973-5911,8374.382351348257,5_Xa4gg8vzRIsVQf_3t-qw,False,Margaritaville - San Antonio,+12109735911,$$,3.0,407,"['delivery', 'pickup']",849 E Commerce St,-98.484979271402,29.4236174761207,"['Bars', 'American (Traditional)', 'Music Venues']"
(210) 826-8303,6703.068365618122,s104UuqsqwqNgC5jppH08Q,False,Mama's Cafe,+12108268303,$$,3.5,180,['delivery'],2442 Nacogdoches Rd,-98.45032,29.51737,"['Cafes', 'American (Traditional)']"
(210) 447-7102,3000.2587072229107,lcLRd7I5iJdIqvAbIdktlQ,False,Twin Peaks,+12104477102,$$,3.0,230,['delivery'],702 NW Loop 410,-98.503753,29.519778,"['American (New)', 'Sports Bars']"
(210) 359-0245,14714.5951090947,ZcYgWO8XXgS_AqAAShf9lg,False,Chatman's Chicken,+12103590245,$,4.0,96,['delivery'],1747 S WW White Rd,-98.405858,29.401825,"['Fast Food', 'Chicken Wings', 'American (Traditional)']"
(210) 342-5454,4225.892187555005,nMxfFIK0rIeCcrzLJaBy8A,False,54th Street Restaurant & Drafthouse,+12103425454,$$,4.0,98,['delivery'],954 Rector St,-98.478771,29.516469,"['Bars', 'American (Traditional)', 'Burgers']"
(210) 690-3808,8586.64639358246,e2HpfHnBzJlWVwhLGJKeYw,False,Cracker Barrel Old Country Store,+12106903808,$$,3.5,168,['delivery'],11030 W Interstate 10,-98.5813916872515,29.5450869789352,"['Breakfast & Brunch', 'Southern', 'American (Traditional)']"
(210) 828-5392,6121.100318053785,tcHNG_d7lW7hzlbIKGrTHQ,False,Good Time Charlie's Bar & Cafe,+12108285392,$$,3.0,247,['delivery'],2922 Broadway St,-98.4712295532227,29.4541168212891,['American (Traditional)']
(210) 368-2957,8553.398529819842,jbXwuXAGmXfBnBwY8FpnGA,False,Mr. C's Fried Chicken and Waffles,+12103682957,$$,4.0,67,[],9390 Huebner Rd,-98.592836,29.529911,"['Breakfast & Brunch', 'American (Traditional)', 'Waffles']"
(210) 222-9923,7015.231809082446,L-T93cgszH0AyPLP6JDxrQ,False,San Antonio Pig Stand,+12102229923,$,3.0,189,"['delivery', 'pickup']",1508 Broadway St,-98.477524,29.440131,['American (Traditional)']
(210) 455-2834,6697.108471218708,rEopL6ttupp6_nbBlpPjLA,False,The Good Kind,+12104552834,$$,4.0,88,"['delivery', 'pickup']",312 Pearl Pkwy,-98.480582,29.441899,"['Caterers', 'Vegetarian', 'American (Traditional)']"
(210) 824-2700,4994.156041703781,7jtwhwnEKEA9XJKV3ivsFA,False,The Hangar,+12108242700,$,3.5,132,[],8203 Broadway,-98.466695,29.511558,"['Sports Bars', 'American (Traditional)']"
(210) 558-1900,14341.266777331144,Q9taWRIDBq3FALQiht7kUw,False,The Cheesecake Factory,+12105581900,$$,3.0,310,[],15900 La Cantera Pkwy,-98.610858,29.592382,"['Desserts', 'American (Traditional)']"
(210) 932-8040,5557.329979396636,u5g93ZZXBaNyhdAkekUPwg,False,Frontier Burger,+12109328040,$,3.0,167,['delivery'],838 NE Lp 410,-98.4638916,29.5162364,"['Burgers', 'Salad', 'American (Traditional)']"
(210) 521-3570,10811.438156204427,ZZxsjzVhEnIxHP-BMKy8BQ,False,Saltgrass Steak House,+12105213570,$$,3.5,149,"['delivery', 'pickup']",2885 Cinema Ridge Rd,-98.6199758,29.4627013329082,"['Steakhouses', 'Seafood', 'American (Traditional)']"
(210) 828-1111,5485.113915085766,w32HV13y36-d7OhBPIbsjw,False,EZ's Brick Oven and Grill,+12108281111,$$,4.0,62,"['delivery', 'pickup']",6498 N New Braunfels Ave,-98.4579261298834,29.4903574944657,"['Burgers', 'Pizza', 'American (New)']"
(210) 532-3318,11204.008877897146,ET1s1FC_k0Yezg3EGFN7Mw,False,Mittman Fine Foods,+12105323318,$,4.5,30,['delivery'],1125 S Mittman St,-98.4546699,29.40823,"['American (Traditional)', 'Tex-Mex']"
(210) 600-9464,12965.79823071489,MOmw-ofkvS-zYYIMrzwD7A,False,Pluckers Wing Bar,+12106009464,$$,3.5,266,[],15651 I-10 W,-98.596729,29.586453,"['Chicken Wings', 'American (Traditional)']"
(210) 337-4007,12430.626069505272,chd4quXt3Tj7cRv89Ci1yA,False,Radicke's Bluebonnet Grill,+12103374007,$,4.0,60,['delivery'],237 N Ww White Rd,-98.40588,29.43466,['American (Traditional)']
(210) 223-1208,6369.961488336182,8QFxAjFqd9oGjBJ5pRBusQ,False,M K Davis Restaurant & Bar,+12102231208,$,3.5,123,['delivery'],1302 N Flores St,-98.502571105957,29.4382781982422,"['Mexican', 'Seafood', 'American (Traditional)']"
(210) 223-9374,8216.31482191061,_3hMVfln8MJmSxWqqVr57A,False,Lone Star Cafe,+12102239374,$$,2.5,544,['delivery'],237 Losoya St,-98.4879758,29.4244902,"['Steakhouses', 'American (Traditional)']"
(210) 694-0825,6290.8331084919055,f9B_Lpl9cw_xuwouFe8KLA,False,Fuddruckers,+12106940825,$$,4.0,69,"['delivery', 'pickup']",9845 IH-10 W,-98.562051,29.532928,"['Burgers', 'American (Traditional)']"
(210) 447-7010,7922.150916215015,TFrkQ4tnZJ7B77YTjolK2w,False,Maverick Whiskey,+12104477010,,4.0,49,[],115 Broadway St,-98.4878460690379,29.4270496817459,"['American (Traditional)', 'Distilleries']"
(210) 229-1526,10933.930900035992,EH5GkBPt7g10V13iIuoofw,False,Texas Burger Company,+12102291526,$,4.5,26,['delivery'],3038 E Commerce,-98.44146,29.41936,"['American (Traditional)', 'Burgers', 'Fast Food']"
(210) 731-8091,5643.116721977622,A1nSOek28J5rv7Mp3GwOGw,False,Red Lobster,+12107318091,$$,3.5,66,['delivery'],4550 NW Loop 410,-98.57234,29.48875,"['Seafood', 'American (Traditional)']"
(210) 271-9981,8018.606568713825,arAjKa-Vn7jGw9RPKevNsw,False,Joe's Crab Shack,+12102719981,$$,3.0,227,['delivery'],212 College St,-98.4892103075981,29.4257425942482,"['Seafood', 'American (Traditional)']"
(210) 692-1500,7163.898410710331,Hn3hRz1yWF2jYYL3Y5US6w,False,Little Woodrows Babcock,+12106921500,$$,3.0,208,['delivery'],2535 Babcock Rd,-98.58714,29.50794,"['Sports Bars', 'American (Traditional)']"
(210) 690-8100,12808.288647982983,zLEzYXyDT1uFL3DDkAjVjg,False,Cheddar's Scratch Kitchen,+12106908100,$$,3.0,273,[],15607 IH-10 W,-98.5963740969656,29.5848950466633,"['Comfort Food', 'American (Traditional)']"
(210) 277-6300,8131.828139902041,S1_O_MKvthCTiKO-KotGyA,False,Rainforest Cafe,+12102776300,$$,2.5,522,"['delivery', 'pickup']",110 E Crockett,-98.4882954,29.42493,"['American (Traditional)', 'Seafood', 'Steakhouses']"
(210) 979-9763,3688.7244722721666,PdjGAlf8QnLtzlr3Lg5W_Q,False,Saltgrass Steak House,+12109799763,$$,3.5,86,"['delivery', 'pickup']",60 NE Interstate 410 Lp,-98.4896058171967,29.5196315733414,"['Steakhouses', 'Seafood', 'American (Traditional)']"
(210) 495-3447,11841.60170362836,wEHlXVHsJ4K-jrWArZrDcA,False,First Watch,+12104953447,$$,3.5,103,[],16668 San Pedro Ave,-98.471861,29.594294,"['Breakfast & Brunch', 'Cafes', 'American (Traditional)']"
(210) 462-1894,10992.52403164311,0OuFt5odhyAnQ8f0dl9g3g,False,Lucy Cooper's Ice House,+12104621894,$$,3.0,181,[],16080 San Pedro Ave,-98.4740504622459,29.5868524686695,"['Bars', 'American (Traditional)']"
(210) 223-4881,8232.908053511926,8xUmlzM6GfyQ88PUP8Zh3g,False,The Republic Of Texas Restaurant,+12102234881,$$,2.5,308,['delivery'],429 E Commerce St,-98.48824,29.42402,"['Mexican', 'Steakhouses', 'American (Traditional)']"
(210) 515-1515,3482.617238452296,99EX0yPAXgHZHlnjwnWI_w,False,Dave & Buster's,+12105151515,$$,2.5,339,[],440 Crossroads Blvd,-98.5503227,29.4963229,"['American (Traditional)', 'Arcades', 'Bars']"
(210) 696-4025,13714.055864007449,H7UHjgFcNB5r1keqazt7Dg,False,LongHorn Steakhouse,+12106964025,$$,3.0,148,['delivery'],5803 N Loop 1604 W,-98.6010097070633,29.592081883817,"['Steakhouses', 'American (Traditional)', 'Barbeque']"
(210) 525-8110,4006.9057727389854,qIRaxr3CDlBLvn6up-ec9g,False,Cracker Barrel Old Country Store,+12105258110,$$,3.0,144,['delivery'],98 NE Loop 410,-98.484677718316,29.5195225208489,"['Breakfast & Brunch', 'Southern', 'American (Traditional)']"
(210) 691-0665,8461.247614882785,xAyEV7N9Gs4-gQCpLeBtkg,False,Jim's Restaurants,+12106910665,$,3.0,103,['delivery'],11006 W Interstate 10,-98.580139875412,29.5446197881832,"['American (Traditional)', 'Diners', 'Breakfast & Brunch']"
(210) 340-4577,5223.717251038866,6w4tt7OQFtQg_Tlqlps6-w,False,Highlander Bar and Grill,+12103404577,$,3.0,89,['delivery'],5562 Fredericksburg Rd,-98.5655136108398,29.5096302032471,"['American (Traditional)', 'Bars', 'Breakfast & Brunch']"
(210) 558-8646,8830.976886492655,ib8OCg14iiIQPzrVDDzq0Q,False,Tia's Taco Hut,+12105588646,$,3.5,96,[],5730 Babcock Rd,-98.5995325818658,29.5230514828012,"['Mexican', 'American (Traditional)', 'Burgers']"
(210) 495-0970,11577.599905346078,ymydW_BmNX6VWbxItdlhfA,False,Evil Olive,+12104950970,$,3.5,68,[],2950 Thousand Oaks,-98.441257,29.576844,"['Sports Bars', 'American (Traditional)']"
(210) 690-1156,11363.238619987802,93ouNSh8-gHqSZGbk_WjlQ,False,Shenanygans,+12106901156,$,3.5,55,[],6422 Babcock Rd,-98.6154403686523,29.5462894439697,"['Sports Bars', 'Lounges', 'American (Traditional)']"
(210) 225-5100,8042.806446886037,kXkUTudhzf6cYD0K4FKiaQ,False,Oro Restaurant and Bar,+12102255100,$$,3.5,75,"['delivery', 'pickup']",705 E Houston St,-98.4858114,29.426527,"['Bars', 'American (Traditional)']"
(210) 468-2100,11159.360537751927,IzOsMfLgTLMX4sSERjmBlw,False,The Dog House Bar & Grill,+12104682100,,4.0,27,[],16111 San Pedro Ave,-98.47555,29.58858,"['Bars', 'American (Traditional)']"
(210) 832-0050,5570.5105756188,LAE_CaIR65OVyN1Nb54r_Q,False,Broadway 5050,+12108320050,$,3.5,139,['delivery'],5050 Broadway St,-98.46243,29.47291,"['American (Traditional)', 'Bars', 'Breakfast & Brunch']"
(210) 598-2083,6559.7155197683405,oxsdn9ft_CD4yW35J39Jpw,False,Groove House,+12105982083,$$,3.5,39,"['delivery', 'pickup']",12333 West Ave,-98.50303,29.55261,"['Bars', 'American (Traditional)']"
(210) 558-9464,6386.657119581798,QFNs2dKe4-v2oKCXYmxc4g,False,Hooters,+12105589464,$$,3.0,118,['delivery'],8527 Wurzbach Rd,-98.572868119626,29.5210869822994,"['Chicken Wings', 'Sports Bars', 'American (Traditional)']"
(210) 694-5912,13703.001314421548,aX7pn4-f5dHyclDHpuy9tg,False,Red Lobster,+12106945912,$$,3.5,80,['delivery'],5815 N Loop 1604 W,-98.601562,29.591583,"['Seafood', 'American (Traditional)']"
(210) 599-8080,10991.517193274982,fAiHAHuFAp0h116WhMCuJw,False,Cracker Barrel Old Country Store,+12105998080,$$,2.5,155,[],6330 N Interstate 35,-98.401231794459,29.4862529719322,"['Breakfast & Brunch', 'Southern', 'American (Traditional)']"
(210) 341-7138,2943.7923605566302,UsONp-NB_S0dLZHpuMZrNw,False,Jim's Restaurants,+12103417138,$,3.0,86,['delivery'],842 NW Lp 410,-98.506072,29.5199,"['American (Traditional)', 'Diners', 'Breakfast & Brunch']"
(210) 828-5120,5903.670292423334,xIbOudvBkjHTAXwHBu5ODg,False,Jim's Restaurants,+12108285120,$,3.5,56,['delivery'],4108 Broadway St,-98.46423,29.4643,"['American (Traditional)', 'Diners', 'Breakfast & Brunch']"
(210) 824-6703,5887.009921056096,9zN8balmWkZYzAOiNiJ6FA,False,Fuddruckers,+12108246703,$$,3.0,64,"['delivery', 'pickup']",8602 Botts Ln,-98.4601799,29.51814,"['Burgers', 'American (Traditional)']"
(210) 826-7001,5333.3044187751175,7KgOILqNcFqiqDlN5IrjkQ,False,Jim's Restaurants,+12108267001,$,3.0,76,['delivery'],8427 Broadway St,-98.4652,29.51623,"['American (Traditional)', 'Diners', 'Breakfast & Brunch']"
(210) 574-1419,8414.851900533693,b1nrCG9Cmjymoa-SKq7cUw,False,Mr. P's,+12105741419,$,4.5,13,"['delivery', 'pickup']",1601 Guadalupe St,-98.51778,29.41885,"['American (Traditional)', 'Tacos', 'Hot Dogs']"
(210) 634-1405,6308.236109653944,UjVywhXD4qYvi1lf3AOEXw,False,Backyard on Broadway,+12106341405,,3.5,38,[],2411 Broadway St,-98.4754939002743,29.4489310360266,"['Bars', 'American (Traditional)', 'Pizza']"
(210) 877-6254,6368.566661738348,qQKnIO5lWsGQc0SqVBKCFA,False,54th Street Restaurant & Drafthouse,+12108776254,$$,4.0,21,[],9907 IH 10 W,-98.563752,29.5334943,"['Bars', 'American (Traditional)', 'Burgers']"
(210) 979-7701,4119.340998656029,1muWry_IbUIxl3TO14c_TQ,False,Applebee's Grill + Bar,+12109797701,$$,2.5,87,['delivery'],97 Loop 410 NE,-98.484795,29.521054,"['Sports Bars', 'Burgers', 'American (Traditional)']"
(210) 223-1911,6709.619901308233,GszTcKbwpAI5xPlpj-hcGQ,False,Luby's,+12102231911,$$,3.0,64,['delivery'],911 North Main Ave,-98.49477,29.43667,"['American (Traditional)', 'Buffets']"
(210) 496-9464,8016.993382929228,8BeLovoIa3OqMkCAk8Spcw,False,Hooters,+12104969464,$$,2.5,102,['delivery'],13131 San Pedro,-98.484272,29.5616008,"['Chicken Wings', 'Sports Bars', 'American (Traditional)']"
(210) 561-2222,8731.319353919991,EHz6CFByY7j_Uz4XFX04tA,False,Babe's Old Fashioned Food,+12105612222,$,2.5,106,"['delivery', 'pickup']",9207 Huebner Rd,-98.59567,29.52898,"['Burgers', 'Pizza', 'American (Traditional)']"
(210) 951-3600,8291.792534875645,O40GqtCvXRKDBleHOJ352g,False,Dave & Buster's,+12109513600,$$,2.5,137,[],849 E Commerce St,-98.4867681904213,29.4238574695132,"['American (Traditional)', 'Arcades', 'Bars']"
(210) 377-4653,3234.1193187154545,I5OTL3dogiA0d80uuo8wwg,False,Asado Seafood and Grill,+12103774653,$$$,3.5,31,[],611 NW Loop 410,-98.5023566825292,29.5215678883626,"['Seafood', 'American (Traditional)']"
(210) 616-2504,8960.522091904233,9s-81E6hfzEDQ6tBuFbz9A,False,Jokesters 22 Pub N Grub,+12106162504,,4.5,15,[],713 S Alamo St,-98.4886413440108,29.4170396376624,"['Sports Bars', 'American (Traditional)', 'Comedy Clubs']"
(210) 694-9464,11182.054976786447,S8SnPUgdh8lKIsASzddGYQ,False,Buffalo Wild Wings,+12106949464,$$,2.5,136,['delivery'],5860 De Zavala Rd,-98.5993163,29.56266,"['Sports Bars', 'Chicken Wings', 'American (Traditional)']"
(210) 637-5673,10536.737126418053,KzEfI8Xg8cxSKGfYAznKDg,False,Family Life Bistro,+12106375673,$$,4.5,12,['delivery'],5814 Rittiman Plz,-98.40651,29.48286,"['Soul Food', 'American (Traditional)']"
(210) 641-2408,12822.41181575453,Ai6_8kZnkiGMtQUwU2D_dg,False,Applebee's Grill + Bar,+12106412408,$$,3.0,73,"['delivery', 'pickup']",15802 IH-10 W,-98.589475,29.589475,"['Sports Bars', 'Burgers', 'American (Traditional)']"
(210) 824-6348,7626.0569007035865,mAswF_sDDbJO44LyxlHzeg,False,Astro SuperBowl,+12108246348,$,3.5,40,[],3203 Harry Wurzbach Rd,-98.43561,29.4944,"['Bowling', 'Bars', 'American (Traditional)']"
(210) 733-1972,3799.1859686135176,FhXOZjW695Ko60O2CXt_8w,False,Luby's,+12107331972,$$,3.0,57,['delivery'],4541 Fredericksburg Rd,-98.5534665117397,29.491069504739,"['American (Traditional)', 'Buffets']"
(210) 377-3333,3652.4361263320097,RDTqU07DJGKq5CyPNzOfZQ,False,TGI Fridays,+12103773333,$$,2.0,196,['delivery'],29 NE Loop 410,-98.49222,29.52113,['American (Traditional)']
(210) 732-8256,3429.722460653694,aI6HF4VTopuvNuIxeeKZpw,False,Jim's Restaurants,+12107328256,$,3.0,59,[],351 W Hildebrand Ave,-98.4987563,29.466765,"['American (Traditional)', 'Diners', 'Breakfast & Brunch']"
(210) 223-1681,7656.654174514955,kF5X2_dprOjSZRO9P_7LTQ,False,Golden Star Cafe,+12102231681,$,3.0,56,['delivery'],821 W Commerce St,-98.50331,29.42627,"['Chinese', 'American (Traditional)', 'Mexican']"
(210) 222-2222,12197.386381095072,wyaJoS0ZhbuZhAxP9Me_wQ,False,Hangar Pub,+12102222222,$$,4.5,15,['delivery'],12234 Nacogdoches Rd,-98.4063806552363,29.5509815481936,"['American (Traditional)', 'Burgers', 'Pubs']"
(210) 348-6405,3981.4752269496553,UzkjVkmPvZZGKkqy270lyw,False,Logan's Roadhouse,+12103486405,$$,2.0,201,['delivery'],92 NE Loop 410,-98.484885,29.51938,"['Steakhouses', 'American (Traditional)', 'Barbeque']"
(210) 225-6196,8235.204962469983,uX4GiW792_5Ivh1SGs3SKw,False,Colonial Room Restaurant,+12102256196,$$,3.0,48,[],204 Alamo Plz,-98.485931,29.42465,['American (Traditional)']
(210) 227-8500,10297.684851000107,IBBLZkgRbIpvA2jPYFd4lQ,False,Longoria's Grocery & Grill,+12102278500,$,5.0,7,['delivery'],201 Brady Blvd,-98.52442,29.40225,"['American (Traditional)', 'Burgers']"
(210) 223-9944,8237.391219180608,rgrFmXV-ToS1EzC9QDYHlg,False,Fuddruckers,+12102239944,$$,2.5,86,"['delivery', 'pickup']",115 Alamo Plz,-98.4874877929688,29.424165725708,"['Burgers', 'American (Traditional)']"
(210) 349-5952,2776.833182797792,Gg2fa6y78F1WoxLQLA6vrQ,False,Denny's,+12103495952,$,3.0,56,"['delivery', 'pickup']",6801 Blanco Rd,-98.507284373045,29.5186300204222,"['Diners', 'American (Traditional)', 'Breakfast & Brunch']"
(210) 732-5491,3859.990229986901,nIHAvP_UGnEFHs8aj-LttQ,False,Jim's Restaurants,+12107325491,$,3.0,66,['delivery'],3319 Hillcrest Dr,-98.5542,29.4922,"['American (Traditional)', 'Diners', 'Breakfast & Brunch']"
(210) 229-9464,8364.524097119129,o6uGVu7eEgt-RceMmiP80A,False,Hooters,+12102299464,$$,2.5,145,['delivery'],849 E Commerce St,-98.484969,29.423715,"['Chicken Wings', 'Sports Bars', 'American (Traditional)']"
(210) 699-6652,8550.101551344564,rB6AQLmqUxz1187dFGlQHQ,False,Luby's,+12106996652,$,3.0,54,['delivery'],9251 Floyd Curl Dr,-98.59363,29.52847,"['American (Traditional)', 'Buffets']"
(210) 223-4321,8495.805954247877,8OUb8P8J7jQR0YH5d06jkQ,False,Denny's,+12102234321,$,2.0,163,"['delivery', 'pickup']",903 E Commerce St,-98.4829037544023,29.4231263651822,"['Diners', 'American (Traditional)', 'Breakfast & Brunch']"
(210) 593-0343,5947.380352186479,ycT4J1KFTua5oRITMp5hcg,False,Denny's,+12105930343,$,2.5,74,"['delivery', 'pickup']",9550 I-10 W,-98.561169,29.5291443,"['Diners', 'American (Traditional)', 'Breakfast & Brunch']"
(210) 558-7788,9991.04215671326,EdYNiXHD1bRCvIO5e6om4A,False,Chili's,+12105587788,$$,2.5,80,['delivery'],12503 Ih 10W,-98.5878496040742,29.5575985015134,"['Tex-Mex', 'Bars', 'American (Traditional)']"
(210) 404-0121,11768.846119821052,vUxp8uGAiuaAa4ucDYPAjg,False,Sideliners Grill,+12104040121,$,2.5,92,"['delivery', 'pickup']",15630 Henderson Pass,-98.45155,29.58508,"['Sports Bars', 'American (Traditional)']"
(210) 832-8037,5491.0463015155165,5SbaHv8JIXlP6ehYGKQ5BQ,False,Steak ’n Shake,+12108328037,$,2.5,59,[],9800 Airport Blvd,-98.471228,29.526481,"['Burgers', 'Fast Food', 'American (Traditional)']"
(210) 680-8646,10567.570579496465,eSDs7bROwvHYNfv6f5tAyg,False,Tia's Taco Hut,+12106808646,$,4.0,107,[],6820 Huebner Rd,-98.6235027069286,29.4983059053327,"['Mexican', 'American (Traditional)', 'Burgers']"
(210) 224-7366,7844.775082126572,Irxm91jAsj7W0g260pKMnw,False,Ranchero Grill & Tap,+12102247366,$,4.0,11,[],612 W Commerce St,-98.50063,29.4252,"['Mexican', 'American (Traditional)']"
(210) 545-6072,8534.77311670428,fMa2MAVpwn1bi-STXsk--Q,False,Denny's,+12105456072,$,2.5,62,"['delivery', 'pickup']",13635 San Pedro Ave,-98.4829003384903,29.5661318562154,"['Diners', 'American (Traditional)', 'Breakfast & Brunch']"
(210) 804-1110,3133.879528887427,PFJBKcJXtRU2LTxiYJufoQ,False,Chili's,+12108041110,$$,2.5,70,['delivery'],255 E Basse Rd,-98.482048,29.495521,"['Tex-Mex', 'Bars', 'American (Traditional)']"
(210) 495-7427,12031.649273936895,_RKz5_paoofaq8qQo_Oprg,False,Texas Roadhouse,+12104957427,$$,3.5,185,[],16915 San Pedro Ave,-98.4730077362832,29.5964725570824,"['Steakhouses', 'Barbeque', 'American (Traditional)']"
(210) 822-2639,5572.431859458674,nY-QLG0NmwOa61f8MiiTiA,False,Chili's,+12108222639,$$,2.5,51,['delivery'],8502 Broadway St,-98.4632356265164,29.5174230447269,"['Tex-Mex', 'Bars', 'American (Traditional)']"
(210) 257-5152,7859.7290440321485,FP1LoiGLdm3POFuQllS_5A,False,The Trophy Room,+12102575152,,4.5,9,[],214 Broadway St,-98.4872871637344,29.4278138937888,"['Sports Bars', 'American (Traditional)']"
(210) 212-8877,8361.851382278504,Pwc_9G0iQPBEbTUfqGqSZA,False,IHOP,+12102128877,$,3.0,34,[],849 E Commerce St,-98.485808,29.42348,"['Breakfast & Brunch', 'American (Traditional)', 'Burgers']"
(210) 690-3131,10604.484393844476,DrctqDTsFjMC_30dM7oiew,False,IHOP,+12106903131,$,2.0,87,[],12780 W Ih 10,-98.59175,29.56201,"['Breakfast & Brunch', 'American (Traditional)', 'Burgers']"
(210) 826-0713,5564.357431221986,0WkaKP76NPA2u-VVYEkTGg,False,Gervin's Sports Bar,+12108260713,$$,2.0,79,[],9800 Airport Blvd,-98.4706778985294,29.5269357710648,"['Sports Bars', 'American (Traditional)', 'Airport Lounges']"
(210) 496-2559,8040.532702809655,7USteVYdn1_y9XHn0UyueA,False,Luby's,+12104962559,$$,2.5,57,['delivery'],13400 San Pedro Ave,-98.48249,29.561204,"['American (Traditional)', 'Buffets']"
(210) 829-8211,5495.048644741557,OWPj7cowVwf2RS_In1a4IA,False,Charley's Grilled Subs,+12108298211,$$,3.0,21,[],9710 Airport Blvd,-98.4726355969906,29.5279176396803,"['American (Traditional)', 'Coffee & Tea']"
(210) 236-8080,9134.624555825374,FMO_owWeQ_RR_1NOC0pLRQ,False,Babcock Social Pub,+12102368080,$$,3.5,22,['delivery'],5891 Babcock Rd,-98.601137,29.526862,"['Sports Bars', 'Tacos', 'American (Traditional)']"
(210) 212-8152,8353.333157407156,n1cdrb1XRkooSchPCDv__Q,False,Chili's,+12102128152,$$,2.0,100,['delivery'],849 E Commerce St,-98.484966,29.423823,"['Tex-Mex', 'Bars', 'American (Traditional)']"
(210) 967-6484,11394.487729306395,NMuxD2AYw96sIly0rFdHdA,False,Applebee's Grill + Bar,+12109676484,$$,2.0,95,['delivery'],7880 IH35 N,-98.39753,29.506827,"['Sports Bars', 'Burgers', 'American (Traditional)']"
(210) 404-1699,9403.114843727384,mGFv0mvC3nTgf4RQin0ouA,False,IHOP,+12104041699,$,2.0,91,[],14424 San Pedro Ave,-98.4787,29.57309,"['Breakfast & Brunch', 'American (Traditional)', 'Burgers']"
(210) 680-5966,11954.62416770739,whz15HZOFHUoSQbx5WEnMg,False,Denny's,+12106805966,$,3.0,30,"['delivery', 'pickup']",7138 NW Loop 410,-98.6286436021328,29.4536047944078,"['Diners', 'American (Traditional)', 'Breakfast & Brunch']"
(210) 221-3106,7669.063400111422,U5HutiiwtVzj0Qr8u9CgLg,False,Rocco Dining Facility,+12102213106,$,4.5,5,[],2745 Schofield Rd,-98.4486974871409,29.4559064441488,['American (Traditional)']
(210) 681-1867,8475.934251498116,D-Mh0_LrcdqlcSNO14I1Sg,False,Jim's Restaurants,+12106811867,$,3.0,28,['delivery'],5917 Bandera Rd,-98.60105,29.48351,"['American (Traditional)', 'Diners', 'Breakfast & Brunch']"
(210) 267-9008,3663.7620413385316,kDFYyS85ZtmowF_DT7Pc-g,False,Rico's Diner,+12102679008,$,4.5,11,"['delivery', 'pickup']",4522 Fredericksburg Rd,-98.552202,29.492633,['American (Traditional)']
(210) 691-1698,6631.5754991197155,t7O6yeG8doxp3e5tGdVIow,False,Anne Marie's Restaurant,+12106911698,,4.5,7,[],12475 Starcrest,-98.575305,29.521783,"['American (Traditional)', 'Sandwiches']"
(210) 224-3368,8018.38134450379,ptUy5XvQdYI_ePCbq-1zcg,False,Tex's Sports Bar,+12102243368,$$,2.0,63,[],Hilton Palacio Del Rio,-98.4903829682617,29.425427,"['American (Traditional)', 'Sports Bars']"
(210) 354-2800,7591.981501157297,l1IfNyGpJPWuI_eG1HjNWw,False,111 Grill,+12103542800,$$,3.5,12,[],111 E Pecan St,-98.492656,29.4288403,"['American (Traditional)', 'Burgers', 'Sandwiches']"
(210) 696-0833,8283.19669828346,x7JV_Gy2DjE6zwoNbiRWjA,False,City View Cafe,+12106960833,$,4.5,6,[],10999 W Interstate 10,-98.577211,29.545056,['American (Traditional)']
(210) 736-1965,2334.134611656169,Cn517HO7ir8vey2UGwzEwg,False,IHOP,+12107361965,$,2.5,43,[],6031 West Ih 10,-98.53623,29.48551,"['Breakfast & Brunch', 'American (Traditional)', 'Burgers']"
(210) 522-1210,6856.296295182339,WQQ_-sBmHhXZuPdLQmIf9A,False,Chili's,+12105221210,$$,2.0,66,[],4983 NW Loop 410,-98.5849252800485,29.4886029176951,"['Tex-Mex', 'Bars', 'American (Traditional)']"
(210) 824-8113,5929.7715882307975,XjhdonSF7xSSYwnrvBhPEA,False,IHOP,+12108248113,$$,2.0,82,[],3820 Broadway St,-98.46592,29.4618444,"['Breakfast & Brunch', 'American (Traditional)', 'Burgers']"
(210) 655-0718,10210.470351389946,Zx1VHaIuN0xO6RXqqqecqw,False,Jim's Restaurants,+12106550718,$,2.5,34,['delivery'],2630 NE Loop 410,-98.4116476,29.5152713,"['American (Traditional)', 'Diners', 'Breakfast & Brunch']"
(210) 207-3534,5638.69079269815,WSh32EeTWnRRUBWdQxPgag,False,R Sala Bebida Botana Bar,+12102073534,$$,3.0,19,[],9800 Airport Blvd,-98.4715703794216,29.5288181220608,"['Bars', 'American (Traditional)']"
,7821.027299473518,zq1_8r9WdtmAPk7KeN4YaA,False,Gallery on the Park,,,4.0,5,[],300 E Travis St,-98.4891388889567,29.4276306494612,['American (Traditional)']
(210) 930-3227,6271.367532435034,jEeYI8H_92CmMWO5tB3CjA,False,Luby's,+12109303227,$,2.5,36,['delivery'],8511 Tesoro Dr,-98.45489,29.51701,"['American (Traditional)', 'Buffets']"
(210) 224-1969,9513.930585378223,lwviMgio2yuC13DLAQh9qA,False,Greenwood's Bar & Grill,+12102241969,$,4.5,4,['delivery'],301 N New Braunfels Ave,-98.46154,29.42252,"['Bars', 'American (Traditional)']"
(210) 598-1419,5492.332765312892,oQl5mATHqGq_rpabEmHJlQ,False,Alamo Alehouse& Gourmet Burger Bar,+12105981419,$$,2.5,91,[],9800 Airport Blvd,-98.4728007639971,29.5280371584991,"['American (Traditional)', 'Burgers']"
(210) 435-1608,9355.182816281646,JmcYcUlQMnzGGYyCTOQy9w,False,Luby's,+12104351608,$$,3.0,15,['delivery'],803 Castroville Rd,-98.55378,29.417608,"['American (Traditional)', 'Buffets']"
(210) 272-1511,7939.195410317819,ZaOzNdgGNeC1RWfwenND3A,False,Windows On the River,+12102721511,$$,3.0,16,['delivery'],217 N St Mary's,-98.49176,29.42587,['American (Traditional)']
(210) 437-1271,6439.963216183762,xhgr63fx8t5_LNczXLCtkw,False,IHOP,+12104371271,,3.0,17,[],9911 W Interstate 10,-98.56333,29.5337,"['Breakfast & Brunch', 'American (Traditional)', 'Burgers']"
(210) 732-1907,3565.94834428237,EaHl9kgQR-JryEyaJX1TGA,False,Denny's,+12107321907,$,2.5,30,"['pickup', 'delivery']",4510 Fredericksburg Rd,-98.5509413480759,29.4903105768189,"['Diners', 'American (Traditional)', 'Breakfast & Brunch']"
(210) 525-8110,4011.588780494397,qmahbeNLNhlR3BaaV2mQVw,False,Cracker Barrel Old Country Store,+12105258110,$,2.5,24,[],98 NE Hwy410,-98.48444433,29.51935833,"['Breakfast & Brunch', 'Southern', 'American (Traditional)']"
(210) 673-3522,14849.954421088249,gSOxzvZHF-3RHt6wOlkxHA,False,Denny's,+12106733522,$$,2.0,53,"['pickup', 'delivery']",6859 Highway 90 W,-98.6269499,29.40356,"['Diners', 'American (Traditional)', 'Breakfast & Brunch']"
(210) 680-3087,11074.396856180878,TlQp40j9MLuXTxfXoiNIww,False,Denny's,+12106803087,$,2.0,34,"['pickup', 'delivery']",6854 Ingram Rd,-98.62292754804,29.4629138083504,"['Diners', 'American (Traditional)', 'Breakfast & Brunch']"
(210) 521-3663,6485.281438121192,dDyxLwY6UELUv2bt7UbuPQ,False,Corporate Square Cafe,+12105213663,$,4.0,4,[],4801 NW Loop 410,-98.58103,29.49036,"['Coffee & Tea', 'Breakfast & Brunch', 'American (Traditional)']"
(210) 509-7800,8637.27756214332,roGBN6TpQPWrAHSj-vufuA,False,IHOP,+12105097800,$,2.5,53,[],5920 Bandera Rd,-98.60265,29.48289,"['Breakfast & Brunch', 'American (Traditional)', 'Burgers']"
,7716.659418380649,J4Z1eWx3IFq6voZEdXB6nA,False,AA Drive In,,,4.5,2,[],4103 W Commerce St,-98.54396,29.42998,"['Burgers', 'American (Traditional)']"
,3772.3594190844983,FtQ8oCpNtGNwBVy93M_5ag,False,Bravo Bar & Grill,,$$,3.5,3,[],77 NE Loop 410,-98.4899628161601,29.5208672497907,"['Cocktail Bars', 'American (Traditional)', 'Breakfast & Brunch']"
(210) 227-3241,7838.153314562998,KxCglECqtVhlfoG0m-bTrw,False,Barron's Restaurant,+12102273241,$$,2.5,12,[],205 E Houston St,-98.491,29.42686,['American (Traditional)']
(210) 602-5807,11496.841532940341,Q145GTyx8lgUNj1PPOihfA,False,MalDonado's Grill,+12106025807,,4.5,2,[],2942 Thousand Oaks,-98.4402717277408,29.5752471746939,"['Food Trucks', 'American (Traditional)', 'Mexican']"
(210) 225-3211,8268.643479848643,tYTw09omzF8gnuBM7-lFVQ,False,Madera's,+12102253211,,3.0,6,['delivery'],318 W Cesar E Chavez,-98.5000784730184,29.4211301924384,"['Bars', 'American (Traditional)', 'Breakfast & Brunch']"
,5169.330609675872,6_Eblox_13Q4D9hCijkS5Q,False,Salpicón Baja Street Grill,,,3.5,3,[],4263 Nw Lp 410,-98.56761,29.49008,['American (Traditional)']
,8522.975729041309,x3fBsUn3EIJBHHR_TLyLVg,False,The Bar At the Marriott Riverwalk,,,3.5,4,[],889 E Riverwalk,-98.4846255,29.4229754,"['American (Traditional)', 'Bars']"
(210) 270-0800,12964.288794098717,aSRNpAtDyHeVCQ06ERyetQ,False,Brickstones Kitchen & Bar,+12102700800,,4.0,2,"['pickup', 'delivery']",5615 Landmark Pkwy,-98.59546,29.58703,"['American (Traditional)', 'Bars']"
(210) 458-7969,14104.73652697172,4L0LPQPILx_2XNU78xTkCQ,False,Chili's,+12104587969,$$,3.0,5,[],1 Utsa Cir,-98.6170659,29.5849108,"['Tex-Mex', 'Bars', 'American (Traditional)']"
,10457.801717912056,AD2yHahLFQXLkytUiRFINw,False,The New Frontier Club,,$$,5.0,1,[],3201 E Houston St,-98.43901,29.42948,['American (Traditional)']
(210) 734-7184,5352.222144542332,0vgCfrGeUmD4FcA9xaXvbA,False,Longnecks Bar & Grill,+12107347184,$$,4.0,2,[],3903 N St Mary's St,-98.471875,29.463679,"['American (Traditional)', 'Burgers', 'Beer Bar']"
(210) 680-5869,7156.294393940005,rTW_tgC2-oCtLgec8ptEew,False,Golden Corral Buffet & Grill,+12106805869,,2.5,3,"['pickup', 'delivery']",5071 N.W. Loop 410,-98.5877,29.48775,"['American (Traditional)', 'Buffets']"
(210) 270-9530,8427.898420487121,m8hEW4Ac9z6E8KJs0jUFMw,False,Chicken Now,+12102709530,$,2.0,5,[],849 E Commerce St,-98.4848034381866,29.4231610762292,"['Chicken Wings', 'Sandwiches', 'American (Traditional)']"
(210) 222-9181,8389.003270652856,il3DisjqDEYz8NmkqTcv5g,False,501 Lounge,+12102229181,,2.5,3,[],303 Blum St,-98.482635,29.424234,['American (Traditional)']
,15450.266308833414,WGsyb8NQmkJrHKSK4pYAOw,False,Taqueria La Tapatia Bar And Grill,,,2.5,3,[],4731 Rigsby Ave,-98.3985971593,29.3988534217,"['American (Traditional)', 'Mexican']"
(210) 225-4414,8046.809398605169,ciY62ugscq24P6xOgm2VSQ,False,The Arizona Cafe 2,+12102254414,,2.0,2,[],414 Dolorosa Ave,-98.4955061,29.4239902,"['Tex-Mex', 'American (Traditional)', 'Mexican']"
(210) 222-0011,8636.615429907448,6XLZ7SFZckbkQwag6fOjkg,False,Nairobi Bar & Grill,+12102220011,,4.0,3,[],514 N Hackberry,-98.47284,29.42561,"['Bars', 'American (Traditional)']"
,8062.214961095111,KMxZEwhjf9lCao5GguPtUg,False,Ventanas Bistro,,$$,2.0,1,[],438-498 S Frio St,-98.504307,29.422468,['American (Traditional)']
,10391.051858661669,5eVAfq3I_q7vvz3GxoTK9w,False,Buffalo Wild Wings,,,1.0,1,[],2714 War Arrow,-98.6147846281528,29.4613252273015,"['Sports Bars', 'Chicken Wings', 'American (Traditional)']"
(210) 649-8245,14028.955157216407,i_M60K61J91fwMBRRY2yrQ,False,SA Phillies,+12106498245,,1.0,1,"['pickup', 'delivery']",7474 W Military Dr,-98.62931,29.41744,['American (Traditional)']
(210) 458-4206,14173.438675099249,5uhCDiyrmjwf1cmYWEsXZg,False,Steak ’n Shake,+12104584206,$,2.0,1,[],One Utsa Cir,-98.618124,29.584463,"['Burgers', 'Fast Food', 'American (Traditional)']"
(210) 984-4499,4345.588434410445,kthLZuVtn6WFRBQBAxo_bg,False,Al-Hijazyat,+12109844499,$,5.0,1,[],,-98.4833014011383,29.4662565265326,"['Food Stands', 'Arabian']"
(210) 383-6415,7503.360051254395,ObsS48tp6s2VSdRtpLYo1w,False,Fat Tummy Empanadas,+12103836415,$,5.0,158,['delivery'],2922 W Commerce St,-98.527976,29.4280016,"['Empanadas', 'Argentine']"
(210) 230-8454,7892.970459827146,VnIuCqHc4fqN05Tvhq2ENQ,False,Dorrego's,+12102308454,$$,4.0,78,[],150 E Houston St,-98.4917399,29.42623,"['Argentine', 'Bars', 'Latin American']"
(512) 387-1141,8744.859008416292,1X1imm2P6vacs3fXXj_xYg,False,El Gaucho Pancho,+15123871141,,5.0,2,['delivery'],1141 E Commerce St,-98.4790594875812,29.4220653713763,"['Argentine', 'Empanadas']"
(210) 438-5259,1790.7111172086609,1y4-4TI7tdU-jY9lInxOxg,False,La Che Empanadas,+12104385259,,5.0,1,[],6828 San Pedro Ave,-98.4987416,29.503012,"['Empanadas', 'Argentine', 'Hookah Bars']"
(210) 277-0638,3231.7012196831665,8aUAFZSENBgdC17hPpKp5g,False,Wild Goji Restaurant & Bar,+12102770638,$$,4.5,828,['delivery'],7115 Blanco Rd,-98.50648,29.52242,"['Asian Fusion', 'Sushi Bars', 'Ramen']"
(210) 509-9999,10856.40038714995,zA74m8K0IYQMT4FfthcUGw,False,Sichuan House,+12105099999,$$,4.5,664,"['delivery', 'pickup']",3505 Wurzbach Rd,-98.6234,29.47179,"['Szechuan', 'Asian Fusion', 'Tapas/Small Plates']"
(210) 455-5574,8698.274672972188,waEEMz2qQaoDoomR2VFnrw,False,Gogi Street,+12104555574,$,4.5,557,['delivery'],12820 Jones Maltsberger Rd,-98.461972,29.558001,"['Korean', 'Barbeque', 'Asian Fusion']"
(210) 340-7808,3712.0887767510135,D4nebJywd4BEOV8g0t__tw,False,Sushihana Japanese Restaurant,+12103407808,$$,4.0,469,['delivery'],1810 NW Military Hwy,-98.5194099,29.52751,"['Japanese', 'Sushi Bars', 'Asian Fusion']"
(210) 267-9717,5610.526316736753,Ps-zAgPdR2yu8gSXQBnH-A,False,Lucky Noodle,+12102679717,$,4.0,381,['delivery'],8525 Blanco Rd,-98.509676,29.544727,"['Asian Fusion', 'Noodles', 'Chinese']"
(210) 973-6988,2776.6881038142096,m3NXLgbw0U_ZjqyN6yB9Cw,False,Hula Poke - San Pedro,+12109736988,$$,4.5,203,['delivery'],7315 San Pedro Ave,-98.4993949,29.5158572,"['Poke', 'Asian Fusion']"
(210) 641-1234,9147.993145520599,woAkGSd5O2JcOyBPlmV8gA,False,Ichiban Steak & Asian Fusion,+12106411234,$$,4.5,171,['delivery'],8601 Huebner Rd,-98.6042908206582,29.5199093614691,"['Japanese', 'Asian Fusion', 'Steakhouses']"
(210) 474-6699,7050.333641454732,S03dN81Ae5tQAjymZGFUPQ,False,L & L Hawaiian Grill,+12104746699,$,4.0,298,"['delivery', 'pickup']",1302 Austin Hwy,-98.441582,29.489544,"['Hawaiian', 'Asian Fusion', 'American (Traditional)']"
(210) 368-9324,9280.067795771163,XPjRUJo4_xl6Ef0fofbefg,False,Hot Joy,+12103689324,$$,3.5,768,['delivery'],1014 S Alamo St,-98.490830947402,29.4135441917695,['Asian Fusion']
(210) 670-7684,6668.743435238012,XgvLoh76QrZCK2cH0gfxbw,False,Botika,+12106707684,$$,3.5,445,['delivery'],303 Pearl Pkwy,-98.479961,29.4425,"['Peruvian', 'Asian Fusion', 'Sushi Bars']"
(210) 314-4423,11812.932081702083,orIMqgC9N0395tUU0B3NmA,False,Sapporo,+12103144423,$$,3.5,398,['delivery'],5638 Hausman Rd,-98.5974280536175,29.5724929869175,"['Sushi Bars', 'Asian Fusion', 'Ramen']"
(210) 472-2900,8137.157164160428,oD4ZUh3XHx9x58c-lXtnOA,False,Sushi Zushi- Downtown,+12104722900,$$,3.5,411,"['delivery', 'pickup']",203 S St Mary'S St,-98.492,29.42369,"['Sushi Bars', 'Japanese', 'Asian Fusion']"
(210) 562-3231,9588.714093188031,Lu3y5ztXoE2lT3TvFYS0tQ,False,Sukeban Sushi,+12105623231,$$,4.0,171,['delivery'],1420 S Alamo St,-98.4957322,29.4097515,"['Japanese', 'Sushi Bars', 'Asian Fusion']"
(210) 641-1288,10552.749217235196,33U5zNgRB7IdaEjD16tIGA,False,HuHot Mongolian Grill,+12106411288,$$,3.5,279,[],12710 Ih 10 W,-98.591619,29.561466,"['Asian Fusion', 'Mongolian', 'Chinese']"
(210) 507-1000,3135.5027954422585,z8wLy5ivnewag5RiX-Ehhw,False,P.F. Chang's,+12105071000,$$,3.5,225,"['delivery', 'pickup']",255 E Basse Rd,-98.482014142189,29.4950132405562,"['Chinese', 'Asian Fusion', 'Gluten-Free']"
(210) 558-2018,10304.432031560114,uS2vd3KWpcRQqwl_RWbqwA,False,Kogi Korean Grill,+12105582018,$$,3.5,179,['delivery'],12651 Vance Jackson Rd,-98.58656,29.5629,"['Korean', 'Asian Fusion']"
(210) 233-1237,6312.143146626147,XCb4_sDFQi1aH67VJWjw0g,False,Dahlia Thai Cuisine,+12102331237,$$,3.5,165,"['delivery', 'pickup']",8498 Fredericksburg Rd,-98.5723704017283,29.5204670851201,"['Thai', 'Sushi Bars', 'Asian Fusion']"
(210) 402-3411,10071.287394787367,-vEVTTRHj45qU9GgMclL8Q,False,Pacific Moon,+12104023411,$$,4.0,123,['delivery'],15140 San Pedro Ave,-98.4769538,29.5789478,"['Korean', 'Asian Fusion']"
(210) 888-1500,9312.95517025155,0_nv1RRsIfuRJLW2BPXaXA,False,Frederick's Bistro,+12108881500,$$$,4.0,102,[],14439 NW Military Hwy,-98.54454,29.57333,"['French', 'Asian Fusion', 'Tapas/Small Plates']"
(210) 340-8888,2790.175555984446,lfzcJfFwg7BU1RxwpknoCw,False,Kai Sushi,+12103408888,$$,3.5,198,"['delivery', 'pickup']",2535 NW Loop 410,-98.534011243151,29.512835281869,"['Japanese', 'Asian Fusion', 'Chinese']"
(210) 561-7688,6420.026373337412,oAUJKlGXWUV40cn1t9maIw,False,Asian Star Super Buffet,+12105617688,$$,3.5,139,['delivery'],9919 Colonial Sq,-98.5651,29.53168,"['Chinese', 'Japanese', 'Asian Fusion']"
(210) 507-6500,14709.793755641562,dEqyr0TM2BN1CE7edPxe9w,False,P.F. Chang's,+12105076500,$$,3.5,212,"['delivery', 'pickup']",15900 Lacantera Pkwy,-98.615796,29.5930257031272,"['Chinese', 'Asian Fusion', 'Gluten-Free']"
(210) 481-4884,9116.22242200778,Dz08SymMWgE4EegBVMyLMw,False,Bamboo,+12104814884,,3.5,156,"['delivery', 'pickup']",1010 S Flores St,-98.499664,29.413465,"['Chinese', 'Asian Fusion']"
(210) 281-4330,10246.929485587112,RBVDzd2fpMXmzuP5FP4KJQ,False,Tasty Thai,+12102814330,,4.0,35,"['delivery', 'pickup']",14516 Brook Hollow Blvd,-98.475225,29.580055,"['Thai', 'Asian Fusion', 'Seafood']"
(210) 561-5600,8382.548185409754,_S-gHJp3WWfP0fAtyqHm7g,False,Pei Wei,+12105615600,$,3.0,128,['delivery'],11267 Huebner Rd,-98.57677,29.5467634,"['Chinese', 'Asian Fusion', 'Gluten-Free']"
(210) 507-3600,4333.624217004787,H7yqQNy3J-FMbz-gJCIiAg,False,Pei Wei,+12105073600,$,3.0,75,['delivery'],999 E Basse Rd,-98.46972,29.49694,"['Chinese', 'Asian Fusion', 'Gluten-Free']"
(210) 691-0880,8653.256730861538,ZzExFzT0hYDD9AgzKJD5PQ,False,Fire Wok,+12106910880,$,2.5,110,['delivery'],11075 Interstate 10,-98.5811969,29.5466901,"['Asian Fusion', 'Japanese', 'Thai']"
(210) 314-1781,7889.397574683825,V_g15GYE7qnIvEWh-Wq6Wg,False,pho bo express,+12103141781,,3.5,25,[],124 Broadway St,-98.487529483372,29.4274568204094,['Asian Fusion']
,8101.455496711922,-nozO4hlBck66NFKse_yXA,False,Blue Whale,,,4.0,13,[],136 Main Plz,-98.4930999102411,29.4239810641494,['Asian Fusion']
(808) 554-1471,29115.989574822954,cX31TWJDbeMqMK4SY84GnA,False,ChinChaRo Taco,+18085541471,,5.0,5,[],,-98.8142264,29.4733158,"['Asian Fusion', 'Korean', 'Food Trucks']"
(210) 823-0106,2734.402935310587,zDwlbR9KnwpRJkQLhxjTnA,False,Ming's Thing,+12108230106,,4.5,2,[],5249 McCullough Ave,-98.4923574074711,29.4790622772008,['Asian Fusion']
(210) 507-2045,5406.233405420434,5Grjr_ZP1mAIuzjKQZjJvQ,False,D'Island Cafe,+12105072045,,4.5,2,[],11319 West Ave,-98.51286,29.543,"['Asian Fusion', 'Mexican']"
(210) 432-5252,9289.258820421897,z-v3tuY2PY5eFn84SvffBw,False,Quik Wok,+12104325252,,2.5,8,"['delivery', 'pickup']",567 W Old Hwy 90,-98.57185,29.42757,"['Chinese', 'Asian Fusion']"
(956) 241-1364,50469.472578615605,5_YSW-gQ-TDZsRTOwOhUUA,False,Miso American Food Truck,+19562411364,,3.5,8,[],,-98.72912,29.79505,"['Food Trucks', 'Asian Fusion', 'Latin American']"
(210) 966-3690,8993.822634135327,i5E7u-wxT2PaB0Rk9blevw,False,Suni Blingoz,+12109663690,,5.0,2,[],5914 Fermi,-98.6011599,29.46542,"['Food Trucks', 'Tex-Mex', 'Asian Fusion']"
(210) 491-4425,15015.827357395849,WXUhnVrxSYiaQePA1Vj67g,False,The Roo Pub,+12104914425,$$,3.0,94,"['pickup', 'delivery']",19314 US Hwy 281 N,-98.4626951505822,29.6217679756706,"['Pubs', 'American (Traditional)', 'Australian']"
(210) 265-3763,4486.283457974526,NKyKURyCgz5zSIRQJjCgNQ,False,Sangria On the Burg,+12102653763,$$,4.5,974,"['delivery', 'restaurant_reservation']",5115 Fredericksburg Rd,-98.5597405,29.50168533,"['American (New)', 'Barbeque', 'Tacos']"
(210) 957-1430,5947.2654834028235,EjHu7cCILgbhyslPNQt3eA,False,The Smoke Shack,+12109571430,$$,4.0,1021,['delivery'],3714 Broadway,-98.4664262831212,29.4610292610233,"['Southern', 'Barbeque', 'Sandwiches']"
(210) 654-8400,9561.838006265316,8MjlOFBianr5LHiOB-X0bQ,False,The Big Bib BBQ,+12106548400,$$,4.0,1025,['delivery'],104 Lanark Dr,-98.4160891441803,29.5029421705954,"['Barbeque', 'Sandwiches']"
(210) 455-5574,8698.274672972188,waEEMz2qQaoDoomR2VFnrw,False,Gogi Street,+12104555574,$,4.5,557,['delivery'],12820 Jones Maltsberger Rd,-98.461972,29.558001,"['Korean', 'Barbeque', 'Asian Fusion']"
(210) 444-9956,8408.810008773607,EkbMMFiq3x5OB8pTvVX0ag,False,225 Urban Smoke,+12104449956,$$,4.5,178,"['pickup', 'delivery']",1015 Rittiman Rd,-98.4281596585388,29.4853234755559,"['Cajun/Creole', 'Barbeque', 'Food Trucks']"
(210) 462-1496,8739.650082550725,UTpujGQ2hiC91XWCXSgOrg,False,Dignowity Meats On Houston Street,+12104621496,$$,4.0,339,"['pickup', 'delivery']",1701 E Houston St,-98.47154,29.42527,"['Sandwiches', 'Delis', 'Barbeque']"
(210) 314-3596,7435.581847861538,ndDWGPjul24IUSo5Phab_A,False,Augie's Alamo City BBQ Steakhouse,+12103143596,$$,4.0,521,['delivery'],909 Broadway St,-98.4815826416016,29.4339714050293,"['Steakhouses', 'Barbeque']"
(210) 267-9136,5983.776278821328,I2-CXOFGdJPbtsyuROn97g,False,The Pigpen,+12102679136,$$,4.0,251,['delivery'],106 Pershing Ave,-98.46595,29.46095,"['Bars', 'Southern', 'Barbeque']"
(210) 496-0222,7074.761490655006,V6iCKYe2bKfKUqQE0ntIlQ,False,Two Bros. BBQ Market,+12104960222,$$,3.5,653,['delivery'],12656 West Ave,-98.49752,29.55608,['Barbeque']
(210) 225-9801,9241.726534719215,M66ztVxHfHLZwvW16xlsMA,False,B&D Ice House,+12102259801,$$,4.0,304,['delivery'],1004 S Alamo St,-98.49063,29.41397,"['Bars', 'Barbeque']"
(210) 824-9191,7591.230473751501,moHk0HG1I9A5bdSEn3ozMQ,False,Barbecue Station,+12108249191,$,4.0,330,['delivery'],1610 NE Loop 410,-98.43954,29.514822,"['Barbeque', 'Comfort Food']"
(210) 473-4988,15517.125590518359,AIaUnJgem8lIxerwQObl2Q,False,Nelson's BBQ,+12104734988,$,5.0,68,[],7327 N Loop 1604 W,-98.6336,29.58782,"['Barbeque', 'Food Trucks', 'Southern']"
(210) 359-1511,13666.666453405684,WEcyv9NUHp5QUeitKg3EVA,False,BBQLIFE,+12103591511,$,4.5,183,['delivery'],902 S Ww White Rd,-98.40508,29.41673,['Barbeque']
(210) 775-1808,8003.019580841852,DZLbeQa-AdApEjsuNnB3nQ,False,Moses Rose's Hideout,+12107751808,$$,3.5,378,"['pickup', 'delivery']",516 E Houston St,-98.4873232609077,29.4264374061105,"['Barbeque', 'Burgers', 'Cocktail Bars']"
(210) 251-2602,7899.254552689045,wC0hPSqYdvCk8MN8Z8nFIw,False,Blanco BBQ,+12102512602,$$,3.5,445,['pickup'],13259 Blanco Rd,-98.5206262244966,29.5652715095735,['Barbeque']
(210) 558-4818,9154.991222194565,JtwDD2VCMW51m0eq40M7Xw,False,Rios Barbacoa,+12105584818,$$,4.5,75,['delivery'],8601 Huebner Rd,-98.6043399,29.51995,"['Mexican', 'Barbeque']"
(210) 229-1941,8076.968993661955,m-lWvk1FiAoOcV0dRFcGHA,False,The County Line,+12102291941,$$,3.0,901,['delivery'],111 W Crockett St,-98.48941,29.425137,['Barbeque']
(210) 521-2988,10835.65842281153,KMofP8OxOCvqC_PIGP1J9Q,False,Texas Roadhouse,+12105212988,$$,4.0,200,[],2893 Cinema Ridge,-98.6204541389488,29.4632458085977,"['Steakhouses', 'Barbeque', 'American (Traditional)']"
(210) 340-5039,4477.75825188252,7hf7lruE1GxObLFyt8DLaQ,False,Old Smokehouse,+12103405039,$$,4.0,197,['delivery'],5145 Fredericksburg Rd,-98.5598,29.502217,"['Barbeque', 'Smokehouse']"
(210) 267-1356,9821.100514653994,QwVgYJz05qxSaQ2jB9w0_A,False,El Monte BBQ,+12102671356,$$,4.5,69,['delivery'],6526 Bandera Rd,-98.61592,29.49238,"['Barbeque', 'Sandwiches']"
(210) 201-1201,12774.614365969082,NkV6W-jhJTIstxP9_lTM6g,False,Bar-B-Cutie,+12102011201,$$,4.0,192,"['pickup', 'delivery']",5603 Presidio Pkwy,-98.595752,29.584935,['Barbeque']
(210) 520-2200,10826.352022396455,oHP6p0EtIg6puewTllBqpg,False,Kim Wah Chinese BBQ,+12105202200,$$,4.0,136,['delivery'],7080 Bandera Rd,-98.6260807514191,29.5000691494924,"['Chinese', 'Barbeque']"
(210) 427-3645,9970.923826750108,ecaaexMN6j5D3uX9enINwg,False,Bushwood BBQ,+12104273645,$$,4.0,99,"['pickup', 'delivery']",13800 Jones Maltsberger Rd,-98.45214,29.56579,"['Barbeque', 'Moroccan']"
(210) 433-6663,10098.74553077099,QJuc3LvIkwSYasNosUWnRQ,False,Rusty Bucket BBQ,+12104336663,$$,4.0,126,['delivery'],600 Cupples Rd,-98.54751,29.40827,['Barbeque']
(210) 348-5724,3008.600863549449,GuEG-COoRmNBeE-qvWfciw,False,LongHorn Steakhouse,+12103485724,$$,3.5,175,['delivery'],7439 San Pedro Ave,-98.4999320224661,29.5183849764953,"['Steakhouses', 'American (Traditional)', 'Barbeque']"
(210) 510-4477,8063.722906242662,FWMDULPC-Fu2OzBxGdHFGw,False,Q Kitchen Bar,+12105104477,$$,3.5,106,['delivery'],123 Losoya St,-98.4882568356514,29.4255857718631,"['Barbeque', 'Bars']"
(210) 828-2820,6509.364173626128,bkWHrZvgwk0iqtsUQjbbJA,False,Bun 'N' Barrel,+12108282820,$,3.5,185,['delivery'],1150 Austin Hwy,-98.447632,29.487444,"['Barbeque', 'Burgers']"
(210) 320-0584,6703.704420575742,QI6IzW3H72LLfUe3ZvKBRw,False,Burnwood ‘68,+12103200584,$$,4.5,47,['delivery'],1012 N Flores St,-98.49978,29.43556,['Barbeque']
(210) 907-5573,8905.57235651211,ToT1sPjO8YjgO2jWOHsz_g,False,"Pollos Asados ""El Carbonero""",+12109075573,$,4.5,43,['delivery'],619 S General Mcmullen Dr,-98.5554,29.422743,"['Barbeque', 'Tex-Mex']"
(210) 994-8099,6837.374303169302,BCK2FHcIu7tFJ5uBSFQ22w,False,Alamo BBQ Co,+12109948099,$$,4.0,86,['delivery'],511 E Grayson St,-98.47498,29.44351,['Barbeque']
(210) 253-9919,8824.853853230363,o18--7exaG7oM1u093SUDQ,False,Smoke BBQ Restaurant,+12102539919,$$,3.0,343,"['pickup', 'delivery']",1170 E Commerce,-98.47849,29.42155,['Barbeque']
(210) 642-4760,14668.563442489696,E6tQtsa4UZFycbY2GGhYWw,False,True Texas BBQ,+12106424760,$$,3.5,119,"['pickup', 'delivery']",17238 Bulverde Rd,-98.4170307797642,29.5955628731412,['Barbeque']
(210) 641-1998,7012.581337685907,Yf0JVLnnk80wIaoX9s9Z0A,False,The County Line on I-10,+12106411998,$$,3.5,337,['delivery'],4334 Hyatt Place Dr,-98.5673940181732,29.5374605204919,['Barbeque']
(210) 367-4869,9046.517202815263,zOWUZdN9TJ_4xMoIY4Jb4g,False,Ay Que Rico,+12103674869,,5.0,20,[],1916 Austin Hwy,-98.421131,29.499758,"['Tacos', 'Food Trucks', 'Barbeque']"
(210) 253-9642,8821.008539611012,03KkgZQDZoQ-1jsoVPiYoQ,False,Smoke BBQ Brew Venue,+12102539642,$$,3.5,91,['pickup'],1168 E Commerce St,-98.4785079,29.4215412,"['Barbeque', 'Sports Bars', 'Smokehouse']"
(210) 451-7362,8991.258870822017,QlVkKwWuPXynMh7SQqofhg,False,Munchies its all good,+12104517362,$,4.5,22,['delivery'],5949 Ingram Rd,-98.6010643,29.4663413,"['Burgers', 'Barbeque', 'Sandwiches']"
(210) 696-4025,13714.055864007449,H7UHjgFcNB5r1keqazt7Dg,False,LongHorn Steakhouse,+12106964025,$$,3.0,148,['delivery'],5803 N Loop 1604 W,-98.6010097070633,29.592081883817,"['Steakhouses', 'American (Traditional)', 'Barbeque']"
(210) 267-1155,10332.903183309709,ls9ogSYwkeMHt8akCl83dw,False,Goodfire BBQ,+12102671155,,3.5,78,['delivery'],8629 Perrin Beitel Rd,-98.4114,29.51853,['Barbeque']
(210) 333-9548,13148.312536209878,P-_KQtvXHfa3roC1v9v9hQ,False,The Smokehouse,+12103339548,$$,3.5,67,['delivery'],3306 Roland Rd,-98.436141,29.397642,['Barbeque']
(210) 776-7444,12390.868447216693,Ix2tj6wBB6iTcPKfhdSjQg,False,Ed's Smok-N-Q,+12107767444,$$,4.0,34,['delivery'],4419 Rockdale Dr,-98.40634,29.43465,['Barbeque']
(210) 433-1916,9784.89243950362,IwE4o24Jn5rZLUHnZQBZKA,False,Rib House B Q Restaurant,+12104331916,$$,4.0,30,[],757 Enrique M Barrera Pkwy,-98.5768160220902,29.4252244435515,"['Barbeque', 'Soul Food']"
(210) 429-0307,6390.14873565401,ojTLL9rcRuKKT9mz4-0pXw,False,Bad To The Bone BBQ,+12104290307,$$,4.5,16,[],2347 Nacogdoches rd,-98.4528914,29.5153315,"['Food Trucks', 'Caterers', 'Barbeque']"
(210) 684-2899,11309.250211730701,ytb_7T8MMFq_gJv9NeeSug,False,Grady's BBQ,+12106842899,$,3.0,102,"['pickup', 'delivery']",7400 Bandera Road,-98.630134740945,29.508533759176,['Barbeque']
(210) 348-6405,3981.4752269496553,UzkjVkmPvZZGKkqy270lyw,False,Logan's Roadhouse,+12103486405,$$,2.0,201,['delivery'],92 NE Loop 410,-98.484885,29.51938,"['Steakhouses', 'American (Traditional)', 'Barbeque']"
(210) 224-6999,11450.799542537972,zXG5QS-C3wmK9z1AOB5J2A,False,Jones Sausage House & Barbeque,+12102246999,,4.5,10,[],2827 Martin Luther Kng Dr,-98.4410171508789,29.4136657714844,['Barbeque']
(210) 699-8849,15314.676996959113,tkks9KtJSoQsxioxaGs3fQ,False,Bill Miller,+12106998849,$,3.0,82,['delivery'],7273 N Loop 1604 W,-98.630311637469,29.58824938907,['Barbeque']
(210) 359-8015,15327.108856827503,f1NJni8uJZ7osyNGGok6qA,False,Big Lou's Burgers & BBQ,+12103598015,$$,2.5,100,['delivery'],2014 S W W White,-98.4038,29.39539,"['Burgers', 'Barbeque', 'Cocktail Bars']"
(210) 226-8422,5912.117594372974,sxjD9NEYm4SfESRjjFcvhw,False,Bill Miller Bar-B-Q,+12102268422,$,3.0,30,['delivery'],1004 San Pedro,-98.498788,29.443037,['Barbeque']
(210) 343-8050,9840.812089326875,HvX8jmRlELgqclXVjAzxIA,False,Grady's BBQ,+12103438050,$,3.0,38,"['pickup', 'delivery']",3619 N Panam Expy,-98.427517,29.4485,['Barbeque']
(210) 692-7373,6155.577463596825,7mH6sQyOn9NWTPYkhesFNA,False,Bill Miller Bar-B-Q,+12106927373,$,2.5,62,['delivery'],9202 Wurzbach,-98.56546,29.52744,['Barbeque']
(210) 435-1644,6345.371318522586,folUKGTPRR_fwdJ6Ofrkww,False,Bill Miller Bar-B-Q,+12104351644,$,3.0,42,['delivery'],2703 Culebra Rd,-98.55244,29.44809,['Barbeque']
(210) 829-7688,5746.816239233069,vrnqUIhS5z5P8A7lJyih7A,False,Bill Miller Bar-B-Q,+12108297688,$,2.5,45,['delivery'],4500 Broadway St,-98.4634472,29.4679176,['Barbeque']
(210) 495-7427,12031.649273936895,_RKz5_paoofaq8qQo_Oprg,False,Texas Roadhouse,+12104957427,$$,3.5,185,[],16915 San Pedro Ave,-98.4730077362832,29.5964725570824,"['Steakhouses', 'Barbeque', 'American (Traditional)']"
(210) 534-3323,9643.269253324324,CLmIS_aLSL9Uy3V9LoC6qw,False,Bill Miller Bar-B-Q,+12105343323,$,3.0,41,['delivery'],1030 E Cesar Chavez,-98.4795317,29.413204,['Barbeque']
(210) 496-2958,11690.346058521984,wteipXiCbudDb9WE-RDiZA,False,Bill Miller Bar-B-Q,+12104962958,$,3.0,46,['delivery'],2911 Thousand Oaks,-98.44071,29.577748,['Barbeque']
(210) 496-3737,8392.96029292167,4wWsly-R2mI_M6ZIPRYSUg,False,Bill Miller Bar-B-Q,+12104963737,$,2.5,58,['delivery'],871 Bitters Rd,-98.480431,29.563881,['Barbeque']
(210) 229-9519,7940.300340002883,W7D4t0ox0xImM19MjY75IQ,False,Bill Miller Bar-B-Q,+12102299519,$,2.5,40,['delivery'],101 W Commerce,-98.49394,29.42531,['Barbeque']
(210) 690-6361,8886.812094776478,xBR-nmgLp6jaEDTpWz548g,False,Bill Miller Bar-B-Q,+12106906361,$,3.0,41,['delivery'],8811 Huebner,-98.59932,29.52479,['Barbeque']
(210) 690-0054,10530.97177154862,xYifXmL2ssDr8nESOWaICw,False,Bill Miller Bar-B-Q,+12106900054,$,2.5,56,['delivery'],5250 DeZavala,-98.58924,29.5632,['Barbeque']
(210) 731-8534,3361.8976154607544,HPOHARexMwuLZAWjQOz4vQ,False,Charcoal Grill,+12107318534,,4.5,6,"['delivery', 'pickup']",110 N Crossroads Blvd,-98.54908,29.49202,['Barbeque']
(210) 438-1664,6254.072441165171,9sYRQgp_g7gjw5YcwmVEQA,False,Pepe's Barbacoa No 4,+12104381664,,5.0,4,[],1727 Bandera Rd,-98.57244,29.47013,"['Barbeque', 'Mexican']"
(210) 432-3663,10215.336201295431,wpXtefiReOEtVB-ojIeDRA,False,Tacos El Rey,+12104323663,$,4.0,16,[],1821 Castroville Rd,-98.565469,29.4140921,"['Barbeque', 'Breakfast & Brunch', 'Mexican']"
(210) 673-1122,14679.136592422945,gAQz49vP9_u0NuRqXBkoqA,False,Bill Miller Bar-B-Q,+12106731122,$,3.0,34,['delivery'],6950 Military Dr W,-98.628718,29.407727,['Barbeque']
(210) 438-5405,11384.171610911866,WONz05_RmD_YyfuVVFbKBA,False,Pit Stop Bar-B-Q Plus,+12104385405,$,4.0,11,[],254 Hobart St,-98.5874404907227,29.4141368865967,['Barbeque']
(210) 302-1510,8288.984736326047,ZjAzFou-_kEQGHltukuOAA,False,Bill Miller Bar-B-Q,+12103021510,$,3.5,17,['delivery'],430 S Santa Rosa Ave,-98.498242,29.421234,['Barbeque']
(210) 600-3227,6401.574292515606,pXZICgslT8Z2GYvZP-hUUw,False,Brickyard BBQ,+12106003227,,3.0,18,['delivery'],8222 Wurzbach Rd,-98.57557,29.51649,"['Sandwiches', 'Barbeque']"
(210) 523-1263,12025.670548262371,Wnbej6FTOOeWVU5uMRpsGQ,False,Bill Miller Bar-B-Q,+12105231263,$,2.5,40,['delivery'],7140 NW Loop 410,-98.6291186621627,29.452933274717,['Barbeque']
(210) 344-8833,3215.8401405437244,4o6QcjTRwCo_lWGfaxB6qA,False,Bill Miller Bar-B-Q,+12103448833,$,2.5,31,['delivery'],8403 McCullough Ave,-98.4917384,29.5155873,['Barbeque']
(210) 607-7007,4106.205249766239,YJ9XEemh8s0qFe2Bdar81A,False,Fitzgerald's Bar & Live Music,+12106077007,$,3.5,14,[],437 McCarty Rd,-98.4989249,29.5288216,"['Bars', 'Music Venues', 'Barbeque']"
(210) 314-7394,7907.684552148052,2Ldkk1ZfkVff3vxTTRWuwg,False,AJ's Bar & Grill,+12103147394,,4.0,10,[],12066 Starcrest Dr,-98.465945,29.551832,"['Karaoke', 'Barbeque', 'Sports Bars']"
(210) 212-4343,7627.166742920393,C-Q1_U3NjSjRtLuwc1Ib5Q,False,Bill Miller Bar-B-Q,+12102124343,$,2.5,26,['delivery'],501 N St Mary's,-98.4916478,29.4287695,['Barbeque']
(210) 654-8888,10605.583693250082,NGDuJGANhLQlwf6qHySWjg,False,Bill Miller Bar-B-Q,+12106548888,$,2.5,30,['delivery'],4502 Rittiman Rd,-98.40559,29.483731,['Barbeque']
(210) 433-8248,7422.246945513052,zHj3wAAm6VXTRuu2Yl4c2w,False,Bill Miller Bar-B-Q,+12104338248,$,3.0,17,['delivery'],2823 Commerce,-98.5265687,29.428534,['Barbeque']
(210) 224-4884,7981.026377420518,dOk5SzcBGd5ps2P7aag9Lg,False,Bill Miller Bar-B-Q,+12102244884,$,3.0,25,[],1720 N New Braunfels,-98.460721,29.439958,['Barbeque']
(210) 681-4051,8710.278803987756,OsD-E2CZI-aD0xkSmvjn6w,False,Bill Miller Bar-B-Q,+12106814051,$,2.5,34,['delivery'],6009 Bandera Rd,-98.603669,29.484497,['Barbeque']
(210) 657-3073,11813.588064870033,F368viX2hIkfFQ07GI5Hrg,False,Bill Miller Bar-B-Q,+12106573073,$,3.0,23,['delivery'],11842 Perrin Beitel,-98.408776,29.547721,['Barbeque']
(210) 492-7385,7935.733616339659,Vinc5q5aVblzU7f7OC7xaA,False,Bill Miller Bar-B-Q,+12104927385,$,2.5,41,['delivery'],13151 NW Military Hwy,-98.53795,29.56285,['Barbeque']
(210) 696-1206,8412.253104674648,drrRRWLaHkWpfyqYDExTyA,False,Bill Miller Bar-B-Q,+12106961206,$,2.5,34,['delivery'],10723 Huebner Rd,-98.58015,29.54385,['Barbeque']
(210) 824-5393,6644.995614498707,08y3zwkSFVodGfTDnAWOsQ,False,Bill Miller Bar-B-Q,+12108245393,$,2.0,44,['delivery'],2410 Nacogdoches,-98.450793,29.516946,['Barbeque']
(210) 732-3636,3333.9964420970773,Llo0BizOIrSr0X3hSLkquA,False,Grady's Bar-B-Que,+12107323636,$$,2.5,25,"['delivery', 'pickup']",4109 Fredericksburg Rd,-98.54714,29.48515,['Barbeque']
(210) 733-3774,2265.905691826696,scaxsfOynKUZEijn_UCTkg,False,Bill Miller Bar-B-Q,+12107333774,$,2.5,27,['delivery'],1303 Vance Jackson,-98.53539,29.48548,['Barbeque']
(210) 617-7674,3277.0931350778133,Z9QfLrmsSeP6NjOGSxGnSA,False,BBQ Life,+12106177674,,4.0,5,[],611 W Hildebrand Ave,-98.50313,29.46668,['Barbeque']
(210) 732-1151,3230.5468644979405,RFjXpG7wKTN7vcRPXC2Fdg,False,Bill Miller Bar-B-Q,+12107321151,$,3.0,17,['delivery'],2112 Blanco Rd,-98.507483,29.4660169,['Barbeque']
(210) 226-4707,10982.19776396559,4XLPU78Rg4L3Y6c8asOjRg,False,Bill Miller Bar-B-Q,+12102264707,$,3.0,16,['delivery'],910 E Probandt,-98.495604,29.39706,['Barbeque']
,6534.736828991613,OVG1zdsscGdCIQRihKQFnQ,False,Outlaw BarBQ,,$$,3.5,8,[],200 E Grayson St,-98.480072,29.4438305,['Barbeque']
(210) 341-6119,2561.3525951703045,eq-Sr8Et9-QSdTYkVM-Dlg,False,Bill Miller Bar-B-Q,+12103416119,$,2.5,11,['delivery'],2110 Jackson Keller,-98.526419,29.514963,['Barbeque']
(956) 792-9066,50469.472578615605,5IQisCGCi5w4CupJrTtRWw,False,Heavenly Q,+19567929066,,4.5,7,[],,-98.72912,29.79505,"['Barbeque', 'Food Trucks']"
(210) 782-7635,12177.251861987717,LBFEzFA5aj5Yj8rer8NDBQ,False,Backwoods BBQ,+12107827635,,4.0,4,[],14530 Roadrunner Way,-98.6141937258276,29.5611756499065,"['Barbeque', 'Food Trucks']"
(210) 642-8822,6354.155838244801,QZyWFvWZlsAAWKk5In9UxQ,False,Papa's Quickdraw Bbq,+12106428822,,4.5,11,[],12054 Blanco Rd,-98.51177,29.55121,['Barbeque']
(210) 432-0222,6733.321589672562,IHhsybzuJfEHTWQGOpJKtQ,False,Casa Gamez Ranchera,+12104320222,$,5.0,1,[],2954 Culebra Rd,-98.559195,29.448111,"['Barbeque', 'Breakfast & Brunch']"
(210) 710-1461,3801.911028489673,HQARaYC1bXgVzjJScNv2yA,False,Sylvia's BBQ Tacos,+12107101461,,5.0,1,[],8021 Pinebrook Dr,-98.5489398211433,29.5107357400023,"['Food Trucks', 'Barbeque', 'Tacos']"
(210) 502-7961,11639.174692342825,miMCO7ZtGtQ7gF5m--MJog,False,Smith's Bar-B-Que,+12105027961,,5.0,1,[],,-98.4858551025391,29.4092025756836,"['Barbeque', 'Food Trucks']"
(210) 201-3008,9984.483225318882,fN6xsWY8eqzRTHfrMKPkrQ,False,Blincoe's Blessed Que,+12102013008,,5.0,1,[],,-98.6105703,29.5269768,['Barbeque']
(210) 732-3636,3334.503531272338,aOPWCglPJvnKp18UKTPB_g,False,Grady's BBQ,+12107323636,$$,2.0,8,[],4109 Fredericksburg Road,-98.54714,29.48515,['Barbeque']
(210) 333-4830,12744.350306269289,A2ycSKP67Kd91Wxt0GkYZQ,False,Bill Miller Bar-B-Q,+12103334830,$,2.5,14,['delivery'],135 S Ww White Rd,-98.40594,29.42968,['Barbeque']
(210) 723-7417,11964.85243128876,dR0odVSRujgfB_EUkRT-Fw,False,RQ BBQ,+12107237417,,5.0,1,[],,-98.61178,29.55657,"['Barbeque', 'Caterers', 'Food Trucks']"
(210) 433-6373,7737.56649020519,3tHzXjUvIyF41ktRaCM2xg,False,The Medieval Grille,+12104336373,,4.0,2,[],3695 Culebra Rd,-98.57604,29.45033,['Barbeque']
(210) 249-6252,16031.580505515529,7Kvp0n8Dfcg8o0CsE93Phg,False,"KR's Geaux-2 Catering, Southern Gourmet On Da Geaux",+12102496252,,2.5,2,[],,-98.64096,29.46105,"['Cajun/Creole', 'Food Trucks', 'Barbeque']"
(210) 387-6461,28507.44194858137,hnTUy0VovHAn18SwZYs5Mw,False,Daddy J's BBQ,+12103876461,,5.0,4,[],,-98.2318496704102,29.5640048980713,"['Food Trucks', 'Barbeque']"
(210) 559-1831,7787.495789756894,Z3Z6nzBHtnz1GvlrKvX9OA,False,Uncle Danny's Backyard Barbecue,+12105591831,,2.0,1,[],12627 Scarlet Sage,-98.4935119003057,29.4268073053078,"['Food Trucks', 'Barbeque']"
(512) 271-9448,113229.13910087597,mdiPEuJ_7iholepYXZ1PEA,False,Gebby's BBQ & Catering,+15122719448,$$,4.5,51,"['delivery', 'pickup']",80 Rainey,-97.739051,30.259254,"['Food Trucks', 'Barbeque']"
(210) 704-7572,12170.819027290314,XTB16yGVJOSSfp7p66ZO4Q,False,DR Woodfire catering,+12107047572,,5.0,1,[],111 Felton Dr,-98.56009,29.3925,"['Caterers', 'Barbeque', 'Tex-Mex']"
,7417.002178914892,fsxZ3yu365vpDFVgnS9HnQ,False,Queen of Smoke,,$$,1.0,1,[],512 Brooklyn Ave,-98.4846518933773,29.4329710796669,"['Food Trucks', 'Barbeque']"
(210) 383-7775,8073.416704308992,szpBxyKxG_pIT_mbq6B03w,False,Lone Star BBQ,+12103837775,,1.0,1,[],1913 S Flores St,-98.4936282,29.4241219,['Barbeque']
(254) 415-1060,41567.79470314247,ccM37FjPvWghUpB5Zq9QZA,False,Flying M Bar-B-Que,+12544151060,,5.0,3,[],,-98.11561,29.35617,"['Barbeque', 'Food Trucks']"
(210) 273-0679,3362.042351668419,-bxd79e43XKRlWOeOsSn6g,False,Frontline Smoke House,+12102730679,,1.0,1,[],110 N Crossroads Blvd,-98.54908,29.49202,['Barbeque']
(210) 224-2122,6578.619826305535,YHJqEy1CwqrPcIFIu2aGJw,False,Sergio's Molino,+12102242122,,1.0,2,[],641 Ruiz St,-98.5118134263545,29.4353183117168,"['Mexican', 'Barbeque']"
(210) 560-2981,10178.12267956139,_04C01Nf4E-3A_-URs3w1A,False,Rios Southtown Barbacoa,+12105602981,,1.0,1,[],317 Probandt,-98.49538,29.40444,['Barbeque']
(210) 224-7555,9037.456399755829,oRZJv58QVTgaT6sx2dUPtQ,False,La Frite Belgian Bistro,+12102247555,$$,4.0,423,"['delivery', 'pickup']",728 S Alamo St,-98.4886,29.41642,"['Belgian', 'French']"
(210) 973-6050,8861.22144709602,ymLDUAQv7WqSp0WacIlGpQ,False,Maverick Texas Brasserie,+12109736050,$$,4.0,326,['delivery'],710 S St Mary's St,-98.490007,29.417631,"['Comfort Food', 'American (New)', 'Brasseries']"
(210) 245-8156,4821.518344970511,fy8-aDK3zdpqY_qxuS0w0w,False,BISTR09,+12102458156,,4.0,48,['restaurant_reservation'],6106 Broadway St,-98.4661941965956,29.4835223819263,"['Bars', 'French', 'Brasseries']"
(210) 564-9400,12976.691225490447,5q8F1R1trsmIKiwE6yqPvg,False,Chama Gaucha Brazilian Steakhouse,+12105649400,$$$,4.5,991,[],18318 Sonterra Pl,-98.497751,29.610238,"['Steakhouses', 'Brazilian']"
(210) 227-1700,8432.105221124279,AiNchzT2cuhsEMmJQJRVHg,False,Fogo de Chão Brazilian Steakhouse,+12102271700,$$$,4.0,670,['delivery'],849 E Commerce St,-98.4844619564487,29.423229,"['Brazilian', 'Steakhouses']"
(210) 299-1600,7913.794680611539,Ut5yYH3729AQBMT4QjCYJg,False,Texas De Brazil,+12102991600,$$$,4.0,412,[],313 E Houston St,-98.48909,29.42663,"['Brazilian', 'Steakhouses', 'Venues & Event Spaces']"
(210) 497-2500,12360.015762343086,NraTgXyDpuvTV-rchOCnvg,False,Galpao Gaucho Brazilian Steakhouse,+12104972500,$$$,4.5,314,"['delivery', 'restaurant_reservation']",2318 N Loop 1604 W,-98.528446,29.6049215,"['Steakhouses', 'Brazilian']"
(210) 233-6868,16671.394007637915,VcMIWFOKStaGA7hpkmpIvg,False,Brasão Brazilian Steakhouse,+12102336868,$$$,4.5,148,[],19210 W Interstate 10,-98.607222,29.620772,"['Steakhouses', 'Brazilian']"
(210) 995-0843,13996.725999918051,Tya21NVPR3keKzbfScb_5Q,False,Churrasquinho do Nardo,+12109950843,$,5.0,4,['delivery'],14530 Roadrunner Way,-98.62466,29.57583,"['Brazilian', 'Food Trucks']"
(210) 253-9894,17223.562458499906,6Qg-vZavT6wBfR-FPjDcow,False,Pingo de Mel Brazilian Bakery,+12102539894,,4.5,6,[],,-98.47733,29.64836,"['Patisserie/Cake Shop', 'Bakeries', 'Brazilian']"
(210) 596-7555,6562.0931377362085,1VhDOskqgmXgqAXFukRGrg,False,InCup,+12105967555,,5.0,1,[],2202 Broadway St,-98.4749968986704,29.4464213593418,"['Brazilian', 'Food Trucks']"
(210) 496-0828,8134.573517423651,_S3cq-DYrsSIpv3EI45ErA,False,The Magnolia Pancake Haus,+12104960828,$$,4.0,1889,[],606 Embassy Oaks,-98.488924,29.564154,"['Breakfast & Brunch', 'American (New)']"
(210) 592-6264,7908.061609186873,lfwzj3hKknLkWk4StJEfQA,False,La Panadería,+12105926264,$$,4.5,1032,['delivery'],301 E Houston St,-98.48957,29.42662,"['Coffee & Tea', 'Breakfast & Brunch', 'Bakeries']"
(210) 375-6746,5100.965070582409,wmwH96wy5kVt8jKPDO0Sxg,False,La Panaderia,+12103756746,$$,4.5,923,[],8305 Broadway,-98.4664267669342,29.5134351867816,"['Desserts', 'Bakeries', 'Breakfast & Brunch']"
(210) 785-9007,4364.859637625657,XHhvawwnTVszMrRi0q1sAg,False,Pancake Joe's,+12107859007,$,4.5,1061,['delivery'],1011 Donaldson Ave,-98.5436325,29.4646091,"['Breakfast & Brunch', 'Pop-Up Restaurants']"
(210) 496-0828,8494.1163754653,ZlFxG9cdW4DkkygtwkkRPg,False,The Magnolia Pancake Haus,+12104960828,$$,4.0,1678,['delivery'],10333 Huebner Rd,-98.58484,29.54005,"['Breakfast & Brunch', 'American (New)']"
(210) 937-1063,3343.546017658525,Q9kPCFtbz2nl-nD5RnspHQ,False,"Snooze, An A.M. Eatery",+12109371063,$$,4.0,954,['delivery'],255 E Basse Rd,-98.4798648623291,29.493841050607,"['Breakfast & Brunch', 'Coffee & Tea', 'Sandwiches']"
(210) 862-5582,6679.671034829075,DGwJwqClgXj2iOT78ipiBA,False,Bakery Lorraine,+12108625582,$$,4.0,979,['delivery'],306 Pearl Pkwy,-98.4800897468719,29.4423221525986,"['Bakeries', 'Breakfast & Brunch', 'Sandwiches']"
(210) 314-7760,3323.168289795035,imR_DEGlWMVoFMhTa9pjxQ,False,Sabor Cocinabar,+12103147760,$$,4.5,374,['delivery'],4331 McCullough Ave,-98.492007,29.4717878,"['Mexican', 'Breakfast & Brunch', 'American (Traditional)']"
(210) 236-8095,14449.813884542675,lHQUmNEMXFiHUfBWPZ7Odw,False,Whiskey Cake,+12102368095,$$,4.0,1379,[],15900 La Cantera Pkwy,-98.611468,29.593213,"['American (New)', 'Breakfast & Brunch']"
(210) 224-2911,7441.387940555176,j2Ym1bd-tRyM-G5qXZ1yCw,False,Pete's Tako House,+12102242911,$,4.5,862,['delivery'],502 Brooklyn Ave,-98.4843139648438,29.4328575134277,"['Breakfast & Brunch', 'Tacos', 'Tex-Mex']"
(210) 438-4963,8563.00296727575,dZAxPEJ3imfJpRT1v9SIgg,False,Thyme For Lunch,+12104384963,$$,4.5,370,['delivery'],9390 Huebner Rd,-98.592921,29.529956,"['Sandwiches', 'Breakfast & Brunch', 'Caterers']"
(210) 267-2652,6708.979656191176,h9m2XBMsoj1RyG9rMCcHsg,False,5 Points Local,+12102672652,$$,4.5,421,['delivery'],1017 N Flores St,-98.5005084425211,29.4353283879293,"['Yoga', 'Gluten-Free', 'Breakfast & Brunch']"
(210) 320-5865,6560.03732226249,sVCxlAwkCh7jSJGojgkUbw,False,Green Vegetarian Cuisine at Pearl Brewery,+12103205865,$$,4.0,773,['delivery'],200 E Grayson St,-98.4801666527786,29.4435266561868,"['Vegetarian', 'Vegan', 'Breakfast & Brunch']"
(210) 227-1061,9407.00862012276,Qbvel21r2GVgDt9nAL1wyQ,False,Guenther House,+12102271061,$$,4.0,1006,[],205 E Guenther,-98.4958087729861,29.4114029997538,"['Breakfast & Brunch', 'Specialty Food', 'Party & Event Planning']"
(210) 615-3644,5379.550915287544,mJYmK1Xgq3kg_Hc8ZUcahw,False,Taqueria Datapoint,+12106153644,$,4.5,672,['delivery'],4063 Medical Dr,-98.562754,29.518312,"['Mexican', 'Breakfast & Brunch']"
(210) 519-5403,7832.373453327221,hg-b2l8wn3RGEro-Uw1ZPg,False,Barrio Barista,+12105195403,$,4.5,372,"['delivery', 'pickup']",3735 Culebra Rd,-98.57783,29.45054,"['Coffee & Tea', 'Juice Bars & Smoothies', 'Breakfast & Brunch']"
(210) 483-7600,8340.907859570825,PLIGLhyC9PwmSt9m8a6Yvg,False,Max & Louie's New York Diner,+12104837600,$$,4.0,907,['delivery'],226 W Bitters Rd,-98.486054,29.565278,"['Diners', 'Breakfast & Brunch', 'American (Traditional)']"
(210) 476-5500,8467.281681886408,cIpcJRG6XlEW7WudvkmQ_A,False,Duck Donuts - San Antonio,+12104765500,$,4.5,408,"['delivery', 'pickup']",11703 Huebner Rd,-98.572608,29.551302,"['Donuts', 'Coffee & Tea', 'Breakfast & Brunch']"
(210) 560-2955,5882.085408233644,znBy9535TU-QREhYuVltJQ,False,Commonwealth Coffehouse and Bakery,+12105602955,$$,4.5,418,"['delivery', 'pickup']",118 Davis Ct,-98.462844,29.466444,"['Coffee & Tea', 'Bakeries', 'Breakfast & Brunch']"
(210) 828-9669,5501.003111445088,eglk84L_IwvD4KwPk0Rq3w,False,Cappy's Restaurant,+12108289669,$$,4.5,438,[],5011 Broadway St,-98.4633888,29.4726367,"['American (New)', 'Breakfast & Brunch', 'Bars']"
(210) 824-1603,4265.384486148027,V_MUVqePSXey_zhdBObztA,False,Torchy's Tacos,+12108241603,$,4.0,862,['delivery'],999 E Basse Rd,-98.4704966205325,29.4977450886393,"['Breakfast & Brunch', 'Tacos']"
(210) 223-6692,8261.627065952023,rLo5yexD4c4tcr3Xv9VgfQ,False,Schilo's Delicatessen,+12102236692,$,4.0,1106,['delivery'],424 E Commerce St,-98.4882952510171,29.4237029599327,"['Delis', 'German', 'Breakfast & Brunch']"
(210) 223-4700,8456.640658442024,5bG34dL0MF2UIXU5oU4yRQ,False,La Villita Cafe,+12102234700,$,4.0,942,[],418 Villita St,-98.489261,29.421605,"['Cafes', 'Breakfast & Brunch', 'Desserts']"
(210) 227-6700,8596.986691213726,D9yTyosZUk6OIUZQkitrwA,False,Panchos and Gringos,+12102276700,$,4.5,462,[],900 Nolan St,-98.470105,29.4274321,"['Delis', 'Breakfast & Brunch', 'Diners']"
(210) 320-1572,5420.683618035441,QFZLiWaqVjeVpEADks-giw,False,NOLA Brunch & Beignets,+12103201572,$$,4.0,514,['delivery'],111 Kings Ct,-98.48505,29.45294,"['Breakfast & Brunch', 'Cajun/Creole']"
(210) 227-1187,9368.944081287129,CpZsZpaVeURirfk8h6Oorw,False,Liberty Bar,+12102271187,$$,4.0,686,['delivery'],1111 S Alamo St,-98.492389,29.412391,"['American (Traditional)', 'Breakfast & Brunch', 'Salad']"
(210) 518-1063,8056.5565219330065,DCpLIlaGzsC8mG2077eANw,False,Las Canarias,+12105181063,$$,4.0,478,['delivery'],112 College St,-98.4899110856117,29.4251935550079,"['American (New)', 'Breakfast & Brunch', 'Buffets']"
(210) 277-8574,7285.493824491583,FBVjK3Wwa8DXL3ZkwbisXg,False,Rosella Coffee,+12102778574,$$,4.0,421,['delivery'],203 E Jones Ave,-98.4804011200274,29.4359881103497,"['Coffee & Tea', 'Breakfast & Brunch', 'Wine Bars']"
(210) 691-2245,6302.730425912569,mNuVbJStfapk38Vxc4YXWg,False,Chicago Bagel & Deli,+12106912245,$,4.5,223,['delivery'],10918 Wurzbach Rd,-98.55161,29.54048,"['Bagels', 'Delis', 'Breakfast & Brunch']"
(210) 212-4832,9223.524081983749,uVK_BzVLyMmNc6QZzr6PsQ,False,Madhatters Tea House & Cafe,+12102124832,$,4.0,763,['delivery'],320 Beauregard St,-98.4912083782749,29.4139856876357,"['Coffee & Tea', 'Breakfast & Brunch', 'Tea Rooms']"
(210) 448-8351,6583.825696088776,JS3gCbLH6Gkz_6lJR6AMQA,False,Supper,+12104488351,$$,4.0,445,['delivery'],132 E Grayson St,-98.4810031048935,29.4428615387664,"['American (New)', 'Breakfast & Brunch']"
(210) 535-7340,5365.362538005372,4WX830bZBhmv-qPlUO7QEQ,False,Chela's Tacos,+12105357340,$,4.5,218,"['delivery', 'pickup']",5231 Broadway St,-98.46325,29.47581,"['Mexican', 'Tex-Mex', 'Breakfast & Brunch']"
(210) 444-9547,3477.473761457342,npasNPLckc0XHKnScB4wmQ,False,MAX's Wine Dive - San Antonio,+12104449547,$$,3.5,680,"['delivery', 'pickup']",340 E Basse Rd,-98.47849,29.49649,"['Wine Bars', 'American (New)', 'Breakfast & Brunch']"
(210) 735-4525,4750.020229259419,4PQ_B6QiGuKa9rJrpeV6kQ,False,Garcia's Mexican Food,+12107354525,$,4.5,212,['delivery'],842 Fredericksburg Rd,-98.513298,29.451715,"['Breakfast & Brunch', 'Tacos', 'Tex-Mex']"
(210) 231-0095,5980.630470743591,_iwavZ-w_ae0U4bqaYy8oA,False,Café Martinez,+12102310095,$,4.0,376,"['delivery', 'pickup']",7302 Louis Pasteur Dr,-98.575567,29.502117,"['Coffee & Tea', 'Breakfast & Brunch', 'Cafes']"
(210) 647-6677,6361.704922711756,rQtCJh6LTb3zxQi8hpQVhA,False,The South Chicken & Waffles,+12106476677,$$,4.0,534,['delivery'],5739 Callaghan Rd,-98.579257,29.485134,"['Breakfast & Brunch', 'Waffles', 'Cajun/Creole']"
(210) 649-8574,3902.6751451831387,yt0AXM_P_Ez7mh5WI4fS9A,False,The Hut Diner,+12106498574,$,4.5,145,"['delivery', 'pickup']",1610 Fredericksburg Rd,-98.521147,29.459835,"['Sandwiches', 'Burgers', 'Breakfast & Brunch']"
(210) 354-4644,6556.269436574538,i8iLLTjW-_RzvXxlRVpsGg,False,Boiler House Texas Grill & Wine Garden,+12103544644,$$,3.5,719,"['delivery', 'pickup']",312 Pearl Pkwy,-98.480389,29.443453,"['American (New)', 'Breakfast & Brunch', 'Wine Bars']"
(210) 212-8226,9216.371056965092,_VTIvw1WB_fSfHkHH1DdQQ,False,Tito's Mexican Restaurant,+12102128226,$,4.0,540,['delivery'],955 S Alamo St,-98.490898,29.4141204,"['Mexican', 'Breakfast & Brunch']"
(210) 737-8646,5444.383954949216,kicqSn6gdgsktxNIIksuOg,False,El Milagrito Café,+12107378646,$,4.0,304,"['delivery', 'pickup']",521 E Woodlawn Ave,-98.48508,29.45267,"['Mexican', 'Tex-Mex', 'Breakfast & Brunch']"
(512) 575-0348,8114.866755335973,2jCyUSJnzgymdAS0CRDerQ,False,Comfort Cafe - San Antonio,+15125750348,,5.0,80,[],5616 Bandera Rd,-98.5967997433,29.4809528906,"['Breakfast & Brunch', 'Comfort Food', 'Cafes']"
(210) 877-0600,8624.138006220066,4uzrG-0rH98-r31elBt03w,False,Ajuúa!,+12108770600,$$,4.0,340,['delivery'],11703 Huebner Rd,-98.5736242725811,29.5524036169485,"['Mexican', 'Breakfast & Brunch', 'Tex-Mex']"
(210) 738-0099,5435.230992375528,mNS0Y-w1y1dZfgEZDL4-6w,False,Candlelight Coffeehouse,+12107380099,$$,4.0,434,"['delivery', 'pickup']",3011 N St Mary's,-98.484652,29.452985,"['Coffee & Tea', 'Wine Bars', 'Breakfast & Brunch']"
(210) 277-7045,9579.76792590845,s5GWhg6g7aKSFxGsHnFc9A,False,Halcyon,+12102777045,$$,3.5,631,"['delivery', 'pickup']",1414 S Alamo St,-98.4953529380792,29.4098975581596,"['Coffee & Tea', 'Breakfast & Brunch', 'Lounges']"
(210) 233-9203,14170.019406913094,jOy0mcJVkC6Rrk2RA9xr6Q,False,Indy Coffee,+12102339203,$,4.5,199,['delivery'],7114 Utsa Blvd,-98.6259728766443,29.5770026814199,"['Coffee & Tea', 'Breakfast & Brunch']"
(210) 303-0330,5887.093906279806,ktFLgpvt5B2ctblaTVgDRg,False,Bakery Lorraine,+12103030330,$$,4.0,225,[],7338 Louis Pasteur Dr,-98.5743898,29.5032275,"['Bakeries', 'Breakfast & Brunch', 'Sandwiches']"
(210) 667-2145,3440.454328177353,jlN1FR1FAroEJV7CqywXAw,False,Ida Claire,+12106672145,$$,4.5,165,[],7300 Jones Maltsberger Rd,-98.47905,29.49758,"['Breakfast & Brunch', 'Southern']"
(210) 558-3900,8541.38890136381,R07-_0t6sn6oWFo4CgQdeg,False,Kolache Stop,+12105583900,$,4.5,151,['delivery'],11703 Huebner Rd,-98.57433,29.55167,"['Bakeries', 'Cafes', 'Breakfast & Brunch']"
(210) 396-5817,8098.00689412776,G1TA_O4ImM47WJhVCrGBWg,False,Ostra,+12103965817,$$$,3.5,389,['delivery'],212 W Crockett St,-98.49056,29.42465,"['American (New)', 'Seafood', 'Breakfast & Brunch']"
(210) 479-8765,8609.047874031598,alvw1qBaxBTV3u6ieDDwPA,False,El Mirasol,+12104798765,$$,4.0,269,['delivery'],13489 Blanco Rd,-98.5171935732713,29.5718233758893,"['Mexican', 'Breakfast & Brunch']"
(210) 630-2220,5021.570102617962,Zj9nj85o89TAYk4qNJATAw,False,Scratch Kitchen,+12106302220,$$,4.5,145,"['pickup', 'delivery']",607 W Russell Pl,-98.49957,29.45118,"['Bakeries', 'Breakfast & Brunch', 'Sandwiches']"
(210) 451-1234,10204.152841151908,ooj_bLqxoVCXzH-PwQd2CQ,False,Tony G's Soul Food,+12104511234,$$,4.0,235,"['pickup', 'delivery']",915 S Hackberry,-98.473539,29.40985,"['Soul Food', 'Music Venues', 'Breakfast & Brunch']"
(210) 686-4844,8810.183597269432,ZWhWDLunRzVHrVZ2os3anw,False,CommonWealth Coffeehouse & Bakery,+12106864844,$$,4.0,171,"['pickup', 'delivery']",611 Hemisfair Blvd,-98.4871913814883,29.4188324203136,"['Coffee & Tea', 'Breakfast & Brunch', 'Desserts']"
(210) 691-3447,6911.0573813013925,XqLcng650eC27U897RXiBg,False,First Watch,+12106913447,$$,4.0,275,[],9985 I-10,-98.56673,29.53669,"['Breakfast & Brunch', 'Cafes', 'American (Traditional)']"
(210) 732-6480,3637.154463881335,08FB6COnhd7-0ljqOagnzg,False,Blanco Cafe,+12107326480,$,4.0,175,['delivery'],1720 Blanco Rd,-98.50764,29.46213,"['Mexican', 'Tex-Mex', 'Breakfast & Brunch']"
(210) 558-5300,11365.509687853708,rlF5xzZW29fKv9CtFMjKag,False,Checo's Mexican & American Grill,+12105585300,$,4.0,187,"['pickup', 'delivery']",5999 De Zavala Rd,-98.6009893,29.5635149,"['Mexican', 'American (Traditional)', 'Breakfast & Brunch']"
(210) 647-7720,11137.12687827118,rwIcwyBXR14Zt6qQYroMWw,False,Pancake Joes,+12106477720,$,4.0,317,['delivery'],6703 Ingram Rd,-98.6243926361203,29.465043355164,"['American (Traditional)', 'Breakfast & Brunch']"
(210) 236-8288,8694.64396738846,b4sc0v7O5nUxa7hfORupPA,False,Pepe's Tacos N' Salsa,+12102368288,$,4.0,182,['delivery'],12820 Jones Maltsberger,-98.4620580726335,29.5579954182187,"['Mexican', 'Breakfast & Brunch']"
(210) 366-9000,2769.368956363005,NPrt8Ns2TTNBVwrUAnKLSg,False,First Watch,+12103669000,$$,4.0,184,[],830 NW Loop 410,-98.506318,29.5183289,"['Breakfast & Brunch', 'Cafes', 'American (Traditional)']"
(210) 390-1592,6830.277878268221,U8ABoSZUIXScRBwM-Thgog,False,Meemo's Bakery & Cafe,+12103901592,$$,4.0,120,"['pickup', 'delivery']",2611 Wagon Wheel St,-98.4490119,29.517553,"['Bakeries', 'Breakfast & Brunch', 'Sandwiches']"
(210) 561-8863,9015.450534362706,ui-vgn3xWPAv1T22qRb8Uw,False,Snowflake Donuts,+12105618863,$,4.5,106,[],5802 Babcock Rd,-98.6010801,29.524165,"['Breakfast & Brunch', 'Donuts']"
(210) 962-5530,8419.393774555869,H7jnsushdITGPtcYZHlbuw,False,"Snooze, An A.M. Eatery",+12109625530,$$,4.0,155,[],11255 Huebner Rd,-98.577835,29.54627,"['Breakfast & Brunch', 'Coffee & Tea', 'Sandwiches']"
